{"type":"FeatureCollection","features":[{"geometry":{"type":"Point","coordinates":[14.410216435817347,50.08883874619596]},"type":"Feature","properties":{"id":29866,"code":"S0001C00011","latitude":50.08883874619596,"longitude":14.410216435817347,"address":"Cihelná 548","district":null,"postal_code":"11000","total_volume":3000,"trash_type":"plastic","prediction":null,"bin_type":"Schäfer/Europa-OV","installed_at":"2018-12-18T00:00:00.000Z"}},{"geometry":{"type":"Point","coordinates":[14.410216435817347,50.08883874619596]},"type":"Feature","properties":{"id":29867,"code":"S0001C00012","latitude":50.08883874619596,"longitude":14.410216435817347,"address":"Cihelná 548","district":null,"postal_code":"11000","total_volume":3000,"trash_type":"paper","prediction":null,"bin_type":"Schäfer/Europa-OV","installed_at":"2018-12-18T00:00:00.000Z"}},{"geometry":{"type":"Point","coordinates":[14.423075100000005,50.0903778]},"type":"Feature","properties":{"id":29882,"code":"S0002C00021","latitude":50.0903778,"longitude":14.423075100000005,"address":"Haštalská 748","district":null,"postal_code":"11000","total_volume":3000,"trash_type":"paper","prediction":null,"bin_type":"Schäfer/Europa-OV","installed_at":"2018-12-18T00:00:00.000Z"}},{"geometry":{"type":"Point","coordinates":[14.423075100000005,50.0903778]},"type":"Feature","properties":{"id":29883,"code":"S0002C00022","latitude":50.0903778,"longitude":14.423075100000005,"address":"Haštalská 748","district":null,"postal_code":"11000","total_volume":3000,"trash_type":"plastic","prediction":"2019-04-13T22:39:24.000Z","bin_type":"Schäfer/Europa-OV","installed_at":"2018-12-18T00:00:00.000Z"}},{"geometry":{"type":"Point","coordinates":[14.423075100000005,50.0903778]},"type":"Feature","properties":{"id":29884,"code":"S0002C00023","latitude":50.0903778,"longitude":14.423075100000005,"address":"Haštalská 748","district":null,"postal_code":"11000","total_volume":1500,"trash_type":"beverage_cartons","prediction":null,"bin_type":"Schäfer/Europa-OV","installed_at":"2018-12-18T00:00:00.000Z"}},{"geometry":{"type":"Point","coordinates":[14.423075100000005,50.0903778]},"type":"Feature","properties":{"id":29885,"code":"S0002C00024","latitude":50.0903778,"longitude":14.423075100000005,"address":"Haštalská 748","district":null,"postal_code":"11000","total_volume":1500,"trash_type":"metal","prediction":"2019-05-13T19:26:14.000Z","bin_type":"Schäfer/Europa-OV","installed_at":"2018-12-18T00:00:00.000Z"}},{"geometry":{"type":"Point","coordinates":[14.42996822300302,50.09205328480078]},"type":"Feature","properties":{"id":29886,"code":"S0003C00031","latitude":50.09205328480078,"longitude":14.42996822300302,"address":"Klimentská 1236","district":null,"postal_code":"11000","total_volume":1500,"trash_type":"metal","prediction":"2019-04-15T05:06:50.000Z","bin_type":"Schäfer/Europa-OV","installed_at":"2018-12-18T00:00:00.000Z"}},{"geometry":{"type":"Point","coordinates":[14.42996822300302,50.09205328480078]},"type":"Feature","properties":{"id":29887,"code":"S0003C00032","latitude":50.09205328480078,"longitude":14.42996822300302,"address":"Klimentská 1236","district":null,"postal_code":"11000","total_volume":3000,"trash_type":"paper","prediction":null,"bin_type":"Schäfer/Europa-OV","installed_at":"2018-12-18T00:00:00.000Z"}},{"geometry":{"type":"Point","coordinates":[14.42996822300302,50.09205328480078]},"type":"Feature","properties":{"id":29888,"code":"S0003C00033","latitude":50.09205328480078,"longitude":14.42996822300302,"address":"Klimentská 1236","district":null,"postal_code":"11000","total_volume":3000,"trash_type":"plastic","prediction":null,"bin_type":"Schäfer/Europa-OV","installed_at":"2018-12-18T00:00:00.000Z"}},{"geometry":{"type":"Point","coordinates":[14.42996822300302,50.09205328480078]},"type":"Feature","properties":{"id":29889,"code":"S0003C00034","latitude":50.09205328480078,"longitude":14.42996822300302,"address":"Klimentská 1236","district":null,"postal_code":"11000","total_volume":1500,"trash_type":"beverage_cartons","prediction":"2019-04-25T21:39:11.000Z","bin_type":"Schäfer/Europa-OV","installed_at":"2018-12-18T00:00:00.000Z"}},{"geometry":{"type":"Point","coordinates":[14.424032000000011,50.0889378]},"type":"Feature","properties":{"id":29896,"code":"S0004C00041","latitude":50.0889378,"longitude":14.424032000000011,"address":"Masná 1053","district":null,"postal_code":"11000","total_volume":3000,"trash_type":"plastic","prediction":"2019-04-14T20:37:30.000Z","bin_type":"Schäfer/Europa-OV","installed_at":"2018-12-18T00:00:00.000Z"}},{"geometry":{"type":"Point","coordinates":[14.424032000000011,50.0889378]},"type":"Feature","properties":{"id":29897,"code":"S0004C00042","latitude":50.0889378,"longitude":14.424032000000011,"address":"Masná 1053","district":null,"postal_code":"11000","total_volume":3000,"trash_type":"paper","prediction":null,"bin_type":"Schäfer/Europa-OV","installed_at":"2018-12-18T00:00:00.000Z"}},{"geometry":{"type":"Point","coordinates":[14.424032000000011,50.0889378]},"type":"Feature","properties":{"id":29898,"code":"S0004C00043","latitude":50.0889378,"longitude":14.424032000000011,"address":"Masná 1053","district":null,"postal_code":"11000","total_volume":1500,"trash_type":"beverage_cartons","prediction":"2019-04-28T14:42:04.000Z","bin_type":"Schäfer/Europa-OV","installed_at":"2018-12-18T00:00:00.000Z"}},{"geometry":{"type":"Point","coordinates":[14.424032000000011,50.0889378]},"type":"Feature","properties":{"id":29899,"code":"S0004C00044","latitude":50.0889378,"longitude":14.424032000000011,"address":"Masná 1053","district":null,"postal_code":"11000","total_volume":1500,"trash_type":"metal","prediction":"2019-05-01T15:45:35.000Z","bin_type":"Schäfer/Europa-OV","installed_at":"2018-12-18T00:00:00.000Z"}},{"geometry":{"type":"Point","coordinates":[14.414671699999985,50.08053899999999]},"type":"Feature","properties":{"id":29912,"code":"S0005C00051","latitude":50.08053899999999,"longitude":14.414671699999985,"address":"Ostrovní 2064","district":null,"postal_code":"11000","total_volume":3000,"trash_type":"plastic","prediction":null,"bin_type":"Schäfer/Europa-OV","installed_at":"2018-12-18T00:00:00.000Z"}},{"geometry":{"type":"Point","coordinates":[14.414671699999985,50.08053899999999]},"type":"Feature","properties":{"id":29913,"code":"S0005C00052","latitude":50.08053899999999,"longitude":14.414671699999985,"address":"Ostrovní 2064","district":null,"postal_code":"11000","total_volume":3000,"trash_type":"paper","prediction":null,"bin_type":"Schäfer/Europa-OV","installed_at":"2018-12-18T00:00:00.000Z"}},{"geometry":{"type":"Point","coordinates":[14.43231620000006,50.0914949]},"type":"Feature","properties":{"id":29914,"code":"S0006C00061","latitude":50.0914949,"longitude":14.43231620000006,"address":"Petrské náměstí 1206","district":null,"postal_code":"11000","total_volume":3000,"trash_type":"paper","prediction":"2019-04-14T00:02:58.000Z","bin_type":"Schäfer/Europa-OR/GB","installed_at":"2018-12-05T00:00:00.000Z"}},{"geometry":{"type":"Point","coordinates":[14.43231620000006,50.0914949]},"type":"Feature","properties":{"id":29915,"code":"S0006C00062","latitude":50.0914949,"longitude":14.43231620000006,"address":"Petrské náměstí 1206","district":null,"postal_code":"11000","total_volume":3000,"trash_type":"paper","prediction":"2019-04-13T05:17:33.000Z","bin_type":"Schäfer/Europa-OR/GB","installed_at":"2018-12-05T00:00:00.000Z"}},{"geometry":{"type":"Point","coordinates":[14.43231620000006,50.0914949]},"type":"Feature","properties":{"id":29916,"code":"S0006C00063","latitude":50.0914949,"longitude":14.43231620000006,"address":"Petrské náměstí 1206","district":null,"postal_code":"11000","total_volume":3000,"trash_type":"plastic","prediction":"2019-04-13T13:52:36.000Z","bin_type":"Schäfer/Europa-OR/GB","installed_at":"2018-12-05T00:00:00.000Z"}},{"geometry":{"type":"Point","coordinates":[14.43231620000006,50.0914949]},"type":"Feature","properties":{"id":29917,"code":"S0006C00064","latitude":50.0914949,"longitude":14.43231620000006,"address":"Petrské náměstí 1206","district":null,"postal_code":"11000","total_volume":3000,"trash_type":"glass_coloured","prediction":"2019-04-26T00:06:17.000Z","bin_type":"Schäfer/Europa-OR/GB","installed_at":"2018-12-05T00:00:00.000Z"}},{"geometry":{"type":"Point","coordinates":[14.43231620000006,50.0914949]},"type":"Feature","properties":{"id":29918,"code":"S0006C00065","latitude":50.0914949,"longitude":14.43231620000006,"address":"Petrské náměstí 1206","district":null,"postal_code":"11000","total_volume":3000,"trash_type":"glass_white","prediction":"2019-05-20T22:50:40.000Z","bin_type":"Schäfer/Europa-OR/GB","installed_at":"2018-12-05T00:00:00.000Z"}},{"geometry":{"type":"Point","coordinates":[14.418782899999997,50.0876414]},"type":"Feature","properties":{"id":29919,"code":"S0007C00071","latitude":50.0876414,"longitude":14.418782899999997,"address":"Platnéřská 16","district":null,"postal_code":"11000","total_volume":3000,"trash_type":"paper","prediction":"2019-04-16T01:14:24.000Z","bin_type":"Schäfer/Europa-OV","installed_at":"2018-12-18T00:00:00.000Z"}},{"geometry":{"type":"Point","coordinates":[14.418782899999997,50.0876414]},"type":"Feature","properties":{"id":29920,"code":"S0007C00072","latitude":50.0876414,"longitude":14.418782899999997,"address":"Platnéřská 16","district":null,"postal_code":"11000","total_volume":3000,"trash_type":"plastic","prediction":"2019-04-18T15:30:11.000Z","bin_type":"Schäfer/Europa-OV","installed_at":"2018-12-18T00:00:00.000Z"}},{"geometry":{"type":"Point","coordinates":[14.421986899999979,50.0840895]},"type":"Feature","properties":{"id":29932,"code":"S0008C00081","latitude":50.0840895,"longitude":14.421986899999979,"address":"Rytířská 406","district":null,"postal_code":"11000","total_volume":3000,"trash_type":"paper","prediction":null,"bin_type":"Schäfer/Europa-OV","installed_at":"2018-12-18T00:00:00.000Z"}},{"geometry":{"type":"Point","coordinates":[14.421986899999979,50.0840895]},"type":"Feature","properties":{"id":29933,"code":"S0008C00082","latitude":50.0840895,"longitude":14.421986899999979,"address":"Rytířská 406","district":null,"postal_code":"11000","total_volume":3000,"trash_type":"plastic","prediction":null,"bin_type":"Schäfer/Europa-OV","installed_at":"2018-12-18T00:00:00.000Z"}},{"geometry":{"type":"Point","coordinates":[14.426015099999972,50.0819706]},"type":"Feature","properties":{"id":29952,"code":"S0009C00091","latitude":50.0819706,"longitude":14.426015099999972,"address":"Václavské náměstí 792","district":null,"postal_code":"11000","total_volume":3000,"trash_type":"paper","prediction":"2019-04-12T16:07:58.000Z","bin_type":"Schäfer/Europa-OV","installed_at":"2018-12-18T00:00:00.000Z"}},{"geometry":{"type":"Point","coordinates":[14.426015099999972,50.0819706]},"type":"Feature","properties":{"id":29953,"code":"S0009C00092","latitude":50.0819706,"longitude":14.426015099999972,"address":"Václavské náměstí 792","district":null,"postal_code":"11000","total_volume":3000,"trash_type":"plastic","prediction":"2019-04-14T06:33:57.000Z","bin_type":"Schäfer/Europa-OV","installed_at":"2018-12-18T00:00:00.000Z"}},{"geometry":{"type":"Point","coordinates":[14.416664099999934,50.0874414]},"type":"Feature","properties":{"id":29954,"code":"S0010C00101","latitude":50.0874414,"longitude":14.416664099999934,"address":"Valentinská 1","district":null,"postal_code":"11000","total_volume":3000,"trash_type":"paper","prediction":null,"bin_type":"Schäfer/Europa-OV","installed_at":"2018-12-18T00:00:00.000Z"}},{"geometry":{"type":"Point","coordinates":[14.416664099999934,50.0874414]},"type":"Feature","properties":{"id":29955,"code":"S0010C00102","latitude":50.0874414,"longitude":14.416664099999934,"address":"Valentinská 1","district":null,"postal_code":"11000","total_volume":3000,"trash_type":"plastic","prediction":null,"bin_type":"Schäfer/Europa-OV","installed_at":"2018-12-18T00:00:00.000Z"}},{"geometry":{"type":"Point","coordinates":[14.407460700000001,50.0815251]},"type":"Feature","properties":{"id":29956,"code":"S0011C00111","latitude":50.0815251,"longitude":14.407460700000001,"address":"Vítězná 559","district":null,"postal_code":"11000","total_volume":3000,"trash_type":"paper","prediction":"2019-04-15T06:08:50.000Z","bin_type":"Schäfer/Europa-OV","installed_at":"2018-12-18T00:00:00.000Z"}},{"geometry":{"type":"Point","coordinates":[14.407460700000001,50.0815251]},"type":"Feature","properties":{"id":29957,"code":"S0011C00112","latitude":50.0815251,"longitude":14.407460700000001,"address":"Vítězná 559","district":null,"postal_code":"11000","total_volume":1500,"trash_type":"metal","prediction":"2019-04-27T20:55:23.000Z","bin_type":"Schäfer/Europa-OV","installed_at":"2018-12-18T00:00:00.000Z"}},{"geometry":{"type":"Point","coordinates":[14.407460700000001,50.0815251]},"type":"Feature","properties":{"id":29958,"code":"S0011C00113","latitude":50.0815251,"longitude":14.407460700000001,"address":"Vítězná 559","district":null,"postal_code":"11000","total_volume":3000,"trash_type":"plastic","prediction":"2019-05-05T23:07:46.000Z","bin_type":"Schäfer/Europa-OV","installed_at":"2018-12-18T00:00:00.000Z"}},{"geometry":{"type":"Point","coordinates":[14.407460700000001,50.0815251]},"type":"Feature","properties":{"id":29959,"code":"S0011C00114","latitude":50.0815251,"longitude":14.407460700000001,"address":"Vítězná 559","district":null,"postal_code":"11000","total_volume":1500,"trash_type":"beverage_cartons","prediction":"2019-04-20T17:09:46.000Z","bin_type":"Schäfer/Europa-OV","installed_at":"2018-12-18T00:00:00.000Z"}},{"geometry":{"type":"Point","coordinates":[14.423311399999989,50.0796423]},"type":"Feature","properties":{"id":29960,"code":"S0012C00121","latitude":50.0796423,"longitude":14.423311399999989,"address":"Vodičkova 683","district":null,"postal_code":"11000","total_volume":3000,"trash_type":"plastic","prediction":"2019-04-13T13:40:32.000Z","bin_type":"Schäfer/Europa-OV","installed_at":"2018-12-18T00:00:00.000Z"}},{"geometry":{"type":"Point","coordinates":[14.423311399999989,50.0796423]},"type":"Feature","properties":{"id":29961,"code":"S0012C00122","latitude":50.0796423,"longitude":14.423311399999989,"address":"Vodičkova 683","district":null,"postal_code":"11000","total_volume":3000,"trash_type":"paper","prediction":null,"bin_type":"Schäfer/Europa-OV","installed_at":"2018-12-18T00:00:00.000Z"}},{"geometry":{"type":"Point","coordinates":[14.406680400000027,50.0739227]},"type":"Feature","properties":{"id":29900,"code":"S0013C00131","latitude":50.0739227,"longitude":14.406680400000027,"address":"náměstí 14. října 83","district":null,"postal_code":"15000","total_volume":3000,"trash_type":"plastic","prediction":"2019-04-13T17:19:00.000Z","bin_type":"Schäfer/Europa-OR/GB","installed_at":"2018-12-05T00:00:00.000Z"}},{"geometry":{"type":"Point","coordinates":[14.406680400000027,50.0739227]},"type":"Feature","properties":{"id":29901,"code":"S0013C00132","latitude":50.0739227,"longitude":14.406680400000027,"address":"náměstí 14. října 83","district":null,"postal_code":"15000","total_volume":1500,"trash_type":"glass_white","prediction":"2019-10-02T08:07:30.000Z","bin_type":"Schäfer/Europa-OR/GB","installed_at":"2018-12-05T00:00:00.000Z"}},{"geometry":{"type":"Point","coordinates":[14.406680400000027,50.0739227]},"type":"Feature","properties":{"id":29902,"code":"S0013C00133","latitude":50.0739227,"longitude":14.406680400000027,"address":"náměstí 14. října 83","district":null,"postal_code":"15000","total_volume":1500,"trash_type":"glass_coloured","prediction":"2019-04-22T19:01:08.000Z","bin_type":"Schäfer/Europa-OR/GB","installed_at":"2018-12-05T00:00:00.000Z"}},{"geometry":{"type":"Point","coordinates":[14.406680400000027,50.0739227]},"type":"Feature","properties":{"id":29903,"code":"S0013C00134","latitude":50.0739227,"longitude":14.406680400000027,"address":"náměstí 14. října 83","district":null,"postal_code":"15000","total_volume":3000,"trash_type":"paper","prediction":"2019-04-13T20:53:11.000Z","bin_type":"Schäfer/Europa-OR/GB","installed_at":"2018-12-05T00:00:00.000Z"}},{"geometry":{"type":"Point","coordinates":[14.377057599999944,50.0341629]},"type":"Feature","properties":{"id":29943,"code":"S0014C00141","latitude":50.0341629,"longitude":14.377057599999944,"address":"Tilleho náměstí 787","district":null,"postal_code":"15000","total_volume":3000,"trash_type":"plastic","prediction":"2019-04-12T13:13:01.000Z","bin_type":"Schäfer/Europa-OR/GB","installed_at":"2018-12-05T00:00:00.000Z"}},{"geometry":{"type":"Point","coordinates":[14.377057599999944,50.0341629]},"type":"Feature","properties":{"id":29944,"code":"S0014C00142","latitude":50.0341629,"longitude":14.377057599999944,"address":"Tilleho náměstí 787","district":null,"postal_code":"15000","total_volume":1500,"trash_type":"glass_white","prediction":"2019-05-09T09:42:55.000Z","bin_type":"Schäfer/Europa-OR/GB","installed_at":"2018-12-05T00:00:00.000Z"}},{"geometry":{"type":"Point","coordinates":[14.377057599999944,50.0341629]},"type":"Feature","properties":{"id":29945,"code":"S0014C00143","latitude":50.0341629,"longitude":14.377057599999944,"address":"Tilleho náměstí 787","district":null,"postal_code":"15000","total_volume":1500,"trash_type":"glass_coloured","prediction":"2019-04-25T20:52:51.000Z","bin_type":"Schäfer/Europa-OR/GB","installed_at":"2018-12-05T00:00:00.000Z"}},{"geometry":{"type":"Point","coordinates":[14.377057599999944,50.0341629]},"type":"Feature","properties":{"id":29946,"code":"S0014C00144","latitude":50.0341629,"longitude":14.377057599999944,"address":"Tilleho náměstí 787","district":null,"postal_code":"15000","total_volume":3000,"trash_type":"paper","prediction":"2019-04-15T11:25:48.000Z","bin_type":"Schäfer/Europa-OR/GB","installed_at":"2018-12-05T00:00:00.000Z"}},{"geometry":{"type":"Point","coordinates":[14.404110800000012,50.0806992]},"type":"Feature","properties":{"id":29947,"code":"S0015C00151","latitude":50.0806992,"longitude":14.404110800000012,"address":"Újezd 415","district":null,"postal_code":"15000","total_volume":3000,"trash_type":"paper","prediction":"2019-04-14T14:31:44.000Z","bin_type":"Schäfer/Europa-OR/GB","installed_at":"2018-12-05T00:00:00.000Z"}},{"geometry":{"type":"Point","coordinates":[14.404110800000012,50.0806992]},"type":"Feature","properties":{"id":29948,"code":"S0015C00152","latitude":50.0806992,"longitude":14.404110800000012,"address":"Újezd 415","district":null,"postal_code":"15000","total_volume":3000,"trash_type":"paper","prediction":"2019-04-14T01:12:19.000Z","bin_type":"Schäfer/Europa-OR/GB","installed_at":"2018-12-05T00:00:00.000Z"}},{"geometry":{"type":"Point","coordinates":[14.404110800000012,50.0806992]},"type":"Feature","properties":{"id":29949,"code":"S0015C00153","latitude":50.0806992,"longitude":14.404110800000012,"address":"Újezd 415","district":null,"postal_code":"15000","total_volume":3000,"trash_type":"plastic","prediction":"2019-04-14T03:05:40.000Z","bin_type":"Schäfer/Europa-OR/GB","installed_at":"2018-12-05T00:00:00.000Z"}},{"geometry":{"type":"Point","coordinates":[14.404110800000012,50.0806992]},"type":"Feature","properties":{"id":29950,"code":"S0015C00154","latitude":50.0806992,"longitude":14.404110800000012,"address":"Újezd 415","district":null,"postal_code":"15000","total_volume":1500,"trash_type":"glass_coloured","prediction":"2019-04-13T08:08:45.000Z","bin_type":"Schäfer/Europa-OR/GB","installed_at":"2018-12-05T00:00:00.000Z"}},{"geometry":{"type":"Point","coordinates":[14.404110800000012,50.0806992]},"type":"Feature","properties":{"id":29951,"code":"S0015C00155","latitude":50.0806992,"longitude":14.404110800000012,"address":"Újezd 415","district":null,"postal_code":"15000","total_volume":1500,"trash_type":"glass_white","prediction":"2019-04-15T15:14:44.000Z","bin_type":"Schäfer/Europa-OR/GB","installed_at":"2018-12-05T00:00:00.000Z"}},{"geometry":{"type":"Point","coordinates":[14.346297999999933,50.08924769999999]},"type":"Feature","properties":{"id":29868,"code":"S0016C00161","latitude":50.08924769999999,"longitude":14.346297999999933,"address":"Čílova 281","district":"TEST","postal_code":"16000","total_volume":4000,"trash_type":"paper","prediction":null,"bin_type":"Bammens Memphis","installed_at":"2018-12-18T00:00:00.000Z"}},{"geometry":{"type":"Point","coordinates":[14.346297999999933,50.08924769999999]},"type":"Feature","properties":{"id":29869,"code":"S0016C00162","latitude":50.08924769999999,"longitude":14.346297999999933,"address":"Čílova 281","district":"TEST","postal_code":"16000","total_volume":4000,"trash_type":"plastic","prediction":null,"bin_type":"Bammens Memphis","installed_at":"2018-12-18T00:00:00.000Z"}},{"geometry":{"type":"Point","coordinates":[14.346297999999933,50.08924769999999]},"type":"Feature","properties":{"id":29870,"code":"S0016C00163","latitude":50.08924769999999,"longitude":14.346297999999933,"address":"Čílova 281","district":"TEST","postal_code":"16000","total_volume":1500,"trash_type":"paper","prediction":"2019-04-20T21:18:58.000Z","bin_type":"Bammens Memphis","installed_at":"2018-12-18T00:00:00.000Z"}},{"geometry":{"type":"Point","coordinates":[14.346297999999933,50.08924769999999]},"type":"Feature","properties":{"id":29871,"code":"S0016C00164","latitude":50.08924769999999,"longitude":14.346297999999933,"address":"Čílova 281","district":"TEST","postal_code":"16000","total_volume":1500,"trash_type":"beverage_cartons","prediction":"2019-04-16T21:52:43.000Z","bin_type":"Bammens Memphis","installed_at":"2018-12-18T00:00:00.000Z"}},{"geometry":{"type":"Point","coordinates":[14.346297999999933,50.08924769999999]},"type":"Feature","properties":{"id":29872,"code":"S0016C00165","latitude":50.08924769999999,"longitude":14.346297999999933,"address":"Čílova 281","district":"TEST","postal_code":"16000","total_volume":1500,"trash_type":"glass_coloured","prediction":"2019-04-14T01:52:07.000Z","bin_type":"Bammens Memphis","installed_at":"2018-12-18T00:00:00.000Z"}},{"geometry":{"type":"Point","coordinates":[14.346297999999933,50.08924769999999]},"type":"Feature","properties":{"id":29873,"code":"S0016C00166","latitude":50.08924769999999,"longitude":14.346297999999933,"address":"Čílova 281","district":"TEST","postal_code":"16000","total_volume":1500,"trash_type":"glass_white","prediction":null,"bin_type":"Bammens Memphis","installed_at":"2018-12-18T00:00:00.000Z"}},{"geometry":{"type":"Point","coordinates":[14.393209100000036,50.1085617]},"type":"Feature","properties":{"id":29874,"code":"S0017C00171","latitude":50.1085617,"longitude":14.393209100000036,"address":"Čínská 1563","district":null,"postal_code":"16000","total_volume":1500,"trash_type":"glass_white","prediction":"2019-05-29T04:33:38.000Z","bin_type":"Schäfer/Europa-OR/GB","installed_at":"2018-12-05T00:00:00.000Z"}},{"geometry":{"type":"Point","coordinates":[14.393209100000036,50.1085617]},"type":"Feature","properties":{"id":29875,"code":"S0017C00172","latitude":50.1085617,"longitude":14.393209100000036,"address":"Čínská 1563","district":null,"postal_code":"16000","total_volume":3000,"trash_type":"paper","prediction":"2019-04-14T17:16:17.000Z","bin_type":"Schäfer/Europa-OR/GB","installed_at":"2018-12-05T00:00:00.000Z"}},{"geometry":{"type":"Point","coordinates":[14.393209100000036,50.1085617]},"type":"Feature","properties":{"id":29876,"code":"S0017C00173","latitude":50.1085617,"longitude":14.393209100000036,"address":"Čínská 1563","district":null,"postal_code":"16000","total_volume":3000,"trash_type":"plastic","prediction":"2019-04-14T06:22:06.000Z","bin_type":"Schäfer/Europa-OR/GB","installed_at":"2018-12-05T00:00:00.000Z"}},{"geometry":{"type":"Point","coordinates":[14.393209100000036,50.1085617]},"type":"Feature","properties":{"id":29877,"code":"S0017C00174","latitude":50.1085617,"longitude":14.393209100000036,"address":"Čínská 1563","district":null,"postal_code":"16000","total_volume":1500,"trash_type":"glass_coloured","prediction":"2019-04-22T22:13:38.000Z","bin_type":"Schäfer/Europa-OR/GB","installed_at":"2018-12-05T00:00:00.000Z"}},{"geometry":{"type":"Point","coordinates":[14.399521899999968,50.0986675]},"type":"Feature","properties":{"id":29878,"code":"S0018C00181","latitude":50.0986675,"longitude":14.399521899999968,"address":"Dejvická 396","district":null,"postal_code":"16000","total_volume":3000,"trash_type":"paper","prediction":"2019-04-14T08:03:47.000Z","bin_type":"Schäfer/Europa-OR/GB","installed_at":"2018-12-05T00:00:00.000Z"}},{"geometry":{"type":"Point","coordinates":[14.399521899999968,50.0986675]},"type":"Feature","properties":{"id":29879,"code":"S0018C00182","latitude":50.0986675,"longitude":14.399521899999968,"address":"Dejvická 396","district":null,"postal_code":"16000","total_volume":3000,"trash_type":"plastic","prediction":null,"bin_type":"Schäfer/Europa-OR/GB","installed_at":"2018-12-05T00:00:00.000Z"}},{"geometry":{"type":"Point","coordinates":[14.399521899999968,50.0986675]},"type":"Feature","properties":{"id":29880,"code":"S0018C00183","latitude":50.0986675,"longitude":14.399521899999968,"address":"Dejvická 396","district":null,"postal_code":"16000","total_volume":1500,"trash_type":"glass_white","prediction":"2019-04-27T22:28:42.000Z","bin_type":"Schäfer/Europa-OR/GB","installed_at":"2018-12-05T00:00:00.000Z"}},{"geometry":{"type":"Point","coordinates":[14.399521899999968,50.0986675]},"type":"Feature","properties":{"id":29881,"code":"S0018C00184","latitude":50.0986675,"longitude":14.399521899999968,"address":"Dejvická 396","district":null,"postal_code":"16000","total_volume":1500,"trash_type":"glass_coloured","prediction":"2019-04-22T14:33:18.000Z","bin_type":"Schäfer/Europa-OR/GB","installed_at":"2018-12-05T00:00:00.000Z"}},{"geometry":{"type":"Point","coordinates":[14.395749099999989,50.1044727]},"type":"Feature","properties":{"id":29890,"code":"S0019C00191","latitude":50.1044727,"longitude":14.395749099999989,"address":"Lotyšská 646","district":null,"postal_code":"16000","total_volume":1500,"trash_type":"glass_coloured","prediction":"2019-04-12T12:26:24.000Z","bin_type":"Bammens Memphis","installed_at":"2018-12-18T00:00:00.000Z"}},{"geometry":{"type":"Point","coordinates":[14.395749099999989,50.1044727]},"type":"Feature","properties":{"id":29891,"code":"S0019C00192","latitude":50.1044727,"longitude":14.395749099999989,"address":"Lotyšská 646","district":null,"postal_code":"16000","total_volume":1500,"trash_type":"paper","prediction":"2019-05-03T16:58:56.000Z","bin_type":"Bammens Memphis","installed_at":"2018-12-18T00:00:00.000Z"}},{"geometry":{"type":"Point","coordinates":[14.395749099999989,50.1044727]},"type":"Feature","properties":{"id":29892,"code":"S0019C00193","latitude":50.1044727,"longitude":14.395749099999989,"address":"Lotyšská 646","district":null,"postal_code":"16000","total_volume":1500,"trash_type":"beverage_cartons","prediction":"2019-04-19T12:42:27.000Z","bin_type":"Bammens Memphis","installed_at":"2018-12-18T00:00:00.000Z"}},{"geometry":{"type":"Point","coordinates":[14.395749099999989,50.1044727]},"type":"Feature","properties":{"id":29893,"code":"S0019C00194","latitude":50.1044727,"longitude":14.395749099999989,"address":"Lotyšská 646","district":null,"postal_code":"16000","total_volume":1500,"trash_type":"glass_white","prediction":null,"bin_type":"Bammens Memphis","installed_at":"2018-12-18T00:00:00.000Z"}},{"geometry":{"type":"Point","coordinates":[14.395749099999989,50.1044727]},"type":"Feature","properties":{"id":29894,"code":"S0019C00195","latitude":50.1044727,"longitude":14.395749099999989,"address":"Lotyšská 646","district":null,"postal_code":"16000","total_volume":4000,"trash_type":"paper","prediction":"2019-04-15T09:25:56.000Z","bin_type":"Bammens Memphis","installed_at":"2018-12-18T00:00:00.000Z"}},{"geometry":{"type":"Point","coordinates":[14.395749099999989,50.1044727]},"type":"Feature","properties":{"id":29895,"code":"S0019C00196","latitude":50.1044727,"longitude":14.395749099999989,"address":"Lotyšská 646","district":null,"postal_code":"16000","total_volume":4000,"trash_type":"plastic","prediction":"2019-04-12T21:17:21.000Z","bin_type":"Bammens Memphis","installed_at":"2018-12-18T00:00:00.000Z"}},{"geometry":{"type":"Point","coordinates":[14.368418700000007,50.1029268]},"type":"Feature","properties":{"id":29786,"code":"S0020C00201","latitude":50.1029268,"longitude":14.368418700000007,"address":"Na Pernikářce 734","district":null,"postal_code":"16000","total_volume":1500,"trash_type":"beverage_cartons","prediction":"2019-05-06T10:41:41.000Z","bin_type":"Bammens Belfast","installed_at":"2018-11-27T00:00:00.000Z"}},{"geometry":{"type":"Point","coordinates":[14.368418700000007,50.1029268]},"type":"Feature","properties":{"id":29787,"code":"S0020C00202","latitude":50.1029268,"longitude":14.368418700000007,"address":"Na Pernikářce 734","district":null,"postal_code":"16000","total_volume":1500,"trash_type":"glass_coloured","prediction":"2019-04-24T18:36:15.000Z","bin_type":"Bammens Belfast","installed_at":"2018-11-27T00:00:00.000Z"}},{"geometry":{"type":"Point","coordinates":[14.368418700000007,50.1029268]},"type":"Feature","properties":{"id":29788,"code":"S0020C00203","latitude":50.1029268,"longitude":14.368418700000007,"address":"Na Pernikářce 734","district":null,"postal_code":"16000","total_volume":3000,"trash_type":"paper","prediction":null,"bin_type":"Bammens Belfast","installed_at":"2018-11-27T00:00:00.000Z"}},{"geometry":{"type":"Point","coordinates":[14.368418700000007,50.1029268]},"type":"Feature","properties":{"id":29789,"code":"S0020C00204","latitude":50.1029268,"longitude":14.368418700000007,"address":"Na Pernikářce 734","district":null,"postal_code":"16000","total_volume":3000,"trash_type":"plastic","prediction":"2019-04-15T06:36:09.000Z","bin_type":"Bammens Belfast","installed_at":"2018-11-27T00:00:00.000Z"}},{"geometry":{"type":"Point","coordinates":[14.398099799999954,50.1009982]},"type":"Feature","properties":{"id":29904,"code":"S0021C00211","latitude":50.1009982,"longitude":14.398099799999954,"address":"Národní obrany 714","district":null,"postal_code":"16000","total_volume":3000,"trash_type":"paper","prediction":"2019-04-14T12:03:41.000Z","bin_type":"Schäfer/Europa-OR/GB","installed_at":"2018-12-05T00:00:00.000Z"}},{"geometry":{"type":"Point","coordinates":[14.398099799999954,50.1009982]},"type":"Feature","properties":{"id":29905,"code":"S0021C00212","latitude":50.1009982,"longitude":14.398099799999954,"address":"Národní obrany 714","district":null,"postal_code":"16000","total_volume":3000,"trash_type":"plastic","prediction":"2019-04-14T12:38:23.000Z","bin_type":"Schäfer/Europa-OR/GB","installed_at":"2018-12-05T00:00:00.000Z"}},{"geometry":{"type":"Point","coordinates":[14.398099799999954,50.1009982]},"type":"Feature","properties":{"id":29906,"code":"S0021C00213","latitude":50.1009982,"longitude":14.398099799999954,"address":"Národní obrany 714","district":null,"postal_code":"16000","total_volume":1500,"trash_type":"glass_coloured","prediction":"2019-04-23T12:23:14.000Z","bin_type":"Schäfer/Europa-OR/GB","installed_at":"2018-12-05T00:00:00.000Z"}},{"geometry":{"type":"Point","coordinates":[14.398099799999954,50.1009982]},"type":"Feature","properties":{"id":29907,"code":"S0021C00214","latitude":50.1009982,"longitude":14.398099799999954,"address":"Národní obrany 714","district":null,"postal_code":"16000","total_volume":1500,"trash_type":"glass_white","prediction":"2019-04-29T16:04:04.000Z","bin_type":"Schäfer/Europa-OR/GB","installed_at":"2018-12-05T00:00:00.000Z"}},{"geometry":{"type":"Point","coordinates":[14.405363899999998,50.098491]},"type":"Feature","properties":{"id":29921,"code":"S0022C00221","latitude":50.098491,"longitude":14.405363899999998,"address":"Pod kaštany 177","district":null,"postal_code":"16000","total_volume":1500,"trash_type":"glass_coloured","prediction":"2019-04-13T15:12:48.000Z","bin_type":"Bammens Memphis","installed_at":"2018-12-18T00:00:00.000Z"}},{"geometry":{"type":"Point","coordinates":[14.405363899999998,50.098491]},"type":"Feature","properties":{"id":29922,"code":"S0022C00222","latitude":50.098491,"longitude":14.405363899999998,"address":"Pod kaštany 177","district":null,"postal_code":"16000","total_volume":1500,"trash_type":"glass_white","prediction":null,"bin_type":"Bammens Memphis","installed_at":"2018-12-18T00:00:00.000Z"}},{"geometry":{"type":"Point","coordinates":[14.405363899999998,50.098491]},"type":"Feature","properties":{"id":29923,"code":"S0022C00223","latitude":50.098491,"longitude":14.405363899999998,"address":"Pod kaštany 177","district":null,"postal_code":"16000","total_volume":3000,"trash_type":"beverage_cartons","prediction":null,"bin_type":"Bammens Memphis","installed_at":"2018-12-18T00:00:00.000Z"}},{"geometry":{"type":"Point","coordinates":[14.405363899999998,50.098491]},"type":"Feature","properties":{"id":29924,"code":"S0022C00224","latitude":50.098491,"longitude":14.405363899999998,"address":"Pod kaštany 177","district":null,"postal_code":"16000","total_volume":3000,"trash_type":"paper","prediction":"2019-04-15T05:31:57.000Z","bin_type":"Bammens Memphis","installed_at":"2018-12-18T00:00:00.000Z"}},{"geometry":{"type":"Point","coordinates":[14.405363899999998,50.098491]},"type":"Feature","properties":{"id":29925,"code":"S0022C00225","latitude":50.098491,"longitude":14.405363899999998,"address":"Pod kaštany 177","district":null,"postal_code":"16000","total_volume":3000,"trash_type":"plastic","prediction":"2019-04-26T18:05:46.000Z","bin_type":"Bammens Memphis","installed_at":"2018-12-18T00:00:00.000Z"}},{"geometry":{"type":"Point","coordinates":[14.401978299999996,50.1029547]},"type":"Feature","properties":{"id":29820,"code":"S0023C00233","latitude":50.1029547,"longitude":14.401978299999996,"address":"Puškinovo náměstí 692","district":null,"postal_code":"16000","total_volume":3000,"trash_type":"paper","prediction":null,"bin_type":"Bammens Belfast","installed_at":"2018-11-27T00:00:00.000Z"}},{"geometry":{"type":"Point","coordinates":[14.401978299999996,50.1029547]},"type":"Feature","properties":{"id":29821,"code":"S0023C00234","latitude":50.1029547,"longitude":14.401978299999996,"address":"Puškinovo náměstí 692","district":null,"postal_code":"16000","total_volume":3000,"trash_type":"plastic","prediction":"2019-04-12T10:24:54.000Z","bin_type":"Bammens Belfast","installed_at":"2018-11-27T00:00:00.000Z"}},{"geometry":{"type":"Point","coordinates":[14.401978299999996,50.1029547]},"type":"Feature","properties":{"id":29822,"code":"S0023C00232","latitude":50.1029547,"longitude":14.401978299999996,"address":"Puškinovo náměstí 692","district":null,"postal_code":"16000","total_volume":1500,"trash_type":"glass_coloured","prediction":"2019-04-22T07:05:15.000Z","bin_type":"Bammens Belfast","installed_at":"2018-11-27T00:00:00.000Z"}},{"geometry":{"type":"Point","coordinates":[14.401978299999996,50.1029547]},"type":"Feature","properties":{"id":29823,"code":"S0023C00231","latitude":50.1029547,"longitude":14.401978299999996,"address":"Puškinovo náměstí 692","district":null,"postal_code":"16000","total_volume":3000,"trash_type":"glass_white","prediction":"2019-04-23T16:07:28.000Z","bin_type":"Bammens Belfast","installed_at":null}},{"geometry":{"type":"Point","coordinates":[14.396752399999968,50.1033592]},"type":"Feature","properties":{"id":29926,"code":"S0024C00241","latitude":50.1033592,"longitude":14.396752399999968,"address":"Rooseveltova 615","district":null,"postal_code":"16000","total_volume":1500,"trash_type":"glass_white","prediction":null,"bin_type":"Bammens Memphis","installed_at":"2018-12-18T00:00:00.000Z"}},{"geometry":{"type":"Point","coordinates":[14.396752399999968,50.1033592]},"type":"Feature","properties":{"id":29927,"code":"S0024C00242","latitude":50.1033592,"longitude":14.396752399999968,"address":"Rooseveltova 615","district":null,"postal_code":"16000","total_volume":4000,"trash_type":"paper","prediction":null,"bin_type":"Bammens Memphis","installed_at":"2018-12-18T00:00:00.000Z"}},{"geometry":{"type":"Point","coordinates":[14.396752399999968,50.1033592]},"type":"Feature","properties":{"id":29928,"code":"S0024C00243","latitude":50.1033592,"longitude":14.396752399999968,"address":"Rooseveltova 615","district":null,"postal_code":"16000","total_volume":4000,"trash_type":"plastic","prediction":null,"bin_type":"Bammens Memphis","installed_at":"2018-12-18T00:00:00.000Z"}},{"geometry":{"type":"Point","coordinates":[14.396752399999968,50.1033592]},"type":"Feature","properties":{"id":29929,"code":"S0024C00244","latitude":50.1033592,"longitude":14.396752399999968,"address":"Rooseveltova 615","district":null,"postal_code":"16000","total_volume":1500,"trash_type":"paper","prediction":"2019-04-19T12:26:15.000Z","bin_type":"Bammens Memphis","installed_at":"2018-12-18T00:00:00.000Z"}},{"geometry":{"type":"Point","coordinates":[14.396752399999968,50.1033592]},"type":"Feature","properties":{"id":29930,"code":"S0024C00245","latitude":50.1033592,"longitude":14.396752399999968,"address":"Rooseveltova 615","district":null,"postal_code":"16000","total_volume":1500,"trash_type":"beverage_cartons","prediction":"2019-04-19T17:17:31.000Z","bin_type":"Bammens Memphis","installed_at":"2018-12-18T00:00:00.000Z"}},{"geometry":{"type":"Point","coordinates":[14.396752399999968,50.1033592]},"type":"Feature","properties":{"id":29931,"code":"S0024C00246","latitude":50.1033592,"longitude":14.396752399999968,"address":"Rooseveltova 615","district":null,"postal_code":"16000","total_volume":1500,"trash_type":"glass_coloured","prediction":null,"bin_type":"Bammens Memphis","installed_at":"2018-12-18T00:00:00.000Z"}},{"geometry":{"type":"Point","coordinates":[14.39254040000003,50.10586180000001]},"type":"Feature","properties":{"id":29938,"code":"S0025C00251","latitude":50.10586180000001,"longitude":14.39254040000003,"address":"Stavitelská 1097","district":null,"postal_code":"16000","total_volume":1500,"trash_type":"glass_white","prediction":"2019-04-14T14:05:17.000Z","bin_type":"Bammens Memphis","installed_at":"2018-12-18T00:00:00.000Z"}},{"geometry":{"type":"Point","coordinates":[14.39254040000003,50.10586180000001]},"type":"Feature","properties":{"id":29939,"code":"S0025C00252","latitude":50.10586180000001,"longitude":14.39254040000003,"address":"Stavitelská 1097","district":null,"postal_code":"16000","total_volume":3000,"trash_type":"paper","prediction":"2019-04-14T16:23:21.000Z","bin_type":"Bammens Memphis","installed_at":"2018-12-18T00:00:00.000Z"}},{"geometry":{"type":"Point","coordinates":[14.39254040000003,50.10586180000001]},"type":"Feature","properties":{"id":29940,"code":"S0025C00253","latitude":50.10586180000001,"longitude":14.39254040000003,"address":"Stavitelská 1097","district":null,"postal_code":"16000","total_volume":3000,"trash_type":"plastic","prediction":"2019-04-12T21:19:54.000Z","bin_type":"Bammens Memphis","installed_at":"2018-12-18T00:00:00.000Z"}},{"geometry":{"type":"Point","coordinates":[14.39254040000003,50.10586180000001]},"type":"Feature","properties":{"id":29941,"code":"S0025C00254","latitude":50.10586180000001,"longitude":14.39254040000003,"address":"Stavitelská 1097","district":null,"postal_code":"16000","total_volume":3000,"trash_type":"beverage_cartons","prediction":"2019-04-13T06:54:09.000Z","bin_type":"Bammens Memphis","installed_at":"2018-12-18T00:00:00.000Z"}},{"geometry":{"type":"Point","coordinates":[14.39254040000003,50.10586180000001]},"type":"Feature","properties":{"id":29942,"code":"S0025C00255","latitude":50.10586180000001,"longitude":14.39254040000003,"address":"Stavitelská 1097","district":null,"postal_code":"16000","total_volume":1500,"trash_type":"glass_coloured","prediction":"2019-04-19T02:23:03.000Z","bin_type":"Bammens Memphis","installed_at":"2018-12-18T00:00:00.000Z"}},{"geometry":{"type":"Point","coordinates":[14.485930199999984,50.1230118]},"type":"Feature","properties":{"id":29824,"code":"S0026C00261","latitude":50.1230118,"longitude":14.485930199999984,"address":"Litvínovská 288","district":null,"postal_code":"19000","total_volume":1500,"trash_type":"beverage_cartons","prediction":"2019-05-01T17:20:37.000Z","bin_type":"Bammens Belfast","installed_at":"2018-11-27T00:00:00.000Z"}},{"geometry":{"type":"Point","coordinates":[14.485930199999984,50.1230118]},"type":"Feature","properties":{"id":29825,"code":"S0026C00262","latitude":50.1230118,"longitude":14.485930199999984,"address":"Litvínovská 288","district":null,"postal_code":"19000","total_volume":1500,"trash_type":"glass_coloured","prediction":"2019-05-28T02:37:57.000Z","bin_type":"Bammens Belfast","installed_at":"2018-11-27T00:00:00.000Z"}},{"geometry":{"type":"Point","coordinates":[14.485930199999984,50.1230118]},"type":"Feature","properties":{"id":29826,"code":"S0026C00263","latitude":50.1230118,"longitude":14.485930199999984,"address":"Litvínovská 288","district":null,"postal_code":"19000","total_volume":3000,"trash_type":"paper","prediction":"2019-04-15T12:16:58.000Z","bin_type":"Bammens Belfast","installed_at":"2018-11-27T00:00:00.000Z"}},{"geometry":{"type":"Point","coordinates":[14.485930199999984,50.1230118]},"type":"Feature","properties":{"id":29827,"code":"S0026C00264","latitude":50.1230118,"longitude":14.485930199999984,"address":"Litvínovská 288","district":null,"postal_code":"19000","total_volume":3000,"trash_type":"plastic","prediction":"2019-04-13T13:18:16.000Z","bin_type":"Bammens Belfast","installed_at":"2018-11-27T00:00:00.000Z"}},{"geometry":{"type":"Point","coordinates":[14.485930199999984,50.1230118]},"type":"Feature","properties":{"id":29828,"code":"S0026C00266","latitude":50.1230118,"longitude":14.485930199999984,"address":"Litvínovská 288","district":null,"postal_code":"19000","total_volume":1500,"trash_type":"glass_white","prediction":"2019-04-26T09:41:38.000Z","bin_type":"Bammens Belfast","installed_at":"2018-11-27T00:00:00.000Z"}},{"geometry":{"type":"Point","coordinates":[14.488425099999972,50.10706099999999]},"type":"Feature","properties":{"id":29962,"code":"S0027C00271","latitude":50.10706099999999,"longitude":14.488425099999972,"address":"Sokolovská u Gongu 972/195","district":null,"postal_code":"19000","total_volume":3000,"trash_type":"paper","prediction":"2019-04-14T13:14:47.000Z","bin_type":"Bammens Memphis","installed_at":"2019-01-13T00:00:00.000Z"}},{"geometry":{"type":"Point","coordinates":[14.488425099999972,50.10706099999999]},"type":"Feature","properties":{"id":29963,"code":"S0027C00272","latitude":50.10706099999999,"longitude":14.488425099999972,"address":"Sokolovská u Gongu 972/195","district":null,"postal_code":"19000","total_volume":3000,"trash_type":"plastic","prediction":"2019-04-17T20:32:23.000Z","bin_type":"Bammens Memphis","installed_at":"2019-01-13T00:00:00.000Z"}},{"geometry":{"type":"Point","coordinates":[14.488425099999972,50.10706099999999]},"type":"Feature","properties":{"id":29964,"code":"S0027C00273","latitude":50.10706099999999,"longitude":14.488425099999972,"address":"Sokolovská u Gongu 972/195","district":null,"postal_code":"19000","total_volume":1500,"trash_type":"glass_coloured","prediction":"2019-04-30T16:50:09.000Z","bin_type":"Bammens Memphis","installed_at":"2019-01-13T00:00:00.000Z"}},{"geometry":{"type":"Point","coordinates":[14.488425099999972,50.10706099999999]},"type":"Feature","properties":{"id":29965,"code":"S0027C00274","latitude":50.10706099999999,"longitude":14.488425099999972,"address":"Sokolovská u Gongu 972/195","district":null,"postal_code":"19000","total_volume":1500,"trash_type":"glass_white","prediction":"2019-04-19T17:24:28.000Z","bin_type":"Bammens Memphis","installed_at":"2019-01-13T00:00:00.000Z"}},{"geometry":{"type":"Point","coordinates":[14.488425099999972,50.10706099999999]},"type":"Feature","properties":{"id":29966,"code":"S0027C00275","latitude":50.10706099999999,"longitude":14.488425099999972,"address":"Sokolovská u Gongu 972/195","district":null,"postal_code":"19000","total_volume":3000,"trash_type":"beverage_cartons","prediction":"2019-04-13T19:55:34.000Z","bin_type":"Bammens Memphis","installed_at":"2019-01-13T00:00:00.000Z"}},{"geometry":{"type":"Point","coordinates":[14.489127199999984,50.1109789]},"type":"Feature","properties":{"id":29967,"code":"S0028C00281","latitude":50.1109789,"longitude":14.489127199999984,"address":"Podvinný mlýn 2347","district":null,"postal_code":"19000","total_volume":3000,"trash_type":"beverage_cartons","prediction":null,"bin_type":"Bammens Memphis","installed_at":"2019-01-13T00:00:00.000Z"}},{"geometry":{"type":"Point","coordinates":[14.489127199999984,50.1109789]},"type":"Feature","properties":{"id":29968,"code":"S0028C00282","latitude":50.1109789,"longitude":14.489127199999984,"address":"Podvinný mlýn 2347","district":null,"postal_code":"19000","total_volume":3000,"trash_type":"paper","prediction":"2019-04-14T19:00:19.000Z","bin_type":"Bammens Memphis","installed_at":"2019-01-13T00:00:00.000Z"}},{"geometry":{"type":"Point","coordinates":[14.489127199999984,50.1109789]},"type":"Feature","properties":{"id":29969,"code":"S0028C00283","latitude":50.1109789,"longitude":14.489127199999984,"address":"Podvinný mlýn 2347","district":null,"postal_code":"19000","total_volume":3000,"trash_type":"plastic","prediction":"2019-04-13T22:47:07.000Z","bin_type":"Bammens Memphis","installed_at":"2019-01-13T00:00:00.000Z"}},{"geometry":{"type":"Point","coordinates":[14.489127199999984,50.1109789]},"type":"Feature","properties":{"id":29970,"code":"S0028C00284","latitude":50.1109789,"longitude":14.489127199999984,"address":"Podvinný mlýn 2347","district":null,"postal_code":"19000","total_volume":1500,"trash_type":"glass_coloured","prediction":"2019-04-23T18:25:45.000Z","bin_type":"Bammens Memphis","installed_at":"2019-01-13T00:00:00.000Z"}},{"geometry":{"type":"Point","coordinates":[14.489127199999984,50.1109789]},"type":"Feature","properties":{"id":29971,"code":"S0028C00285","latitude":50.1109789,"longitude":14.489127199999984,"address":"Podvinný mlýn 2347","district":null,"postal_code":"19000","total_volume":1500,"trash_type":"glass_white","prediction":"2019-04-16T22:33:45.000Z","bin_type":"Bammens Memphis","installed_at":"2019-01-13T00:00:00.000Z"}},{"geometry":{"type":"Point","coordinates":[14.503807800000004,50.1102845]},"type":"Feature","properties":{"id":29972,"code":"S0029C00291","latitude":50.1102845,"longitude":14.503807800000004,"address":"Prouzova 792","district":null,"postal_code":"19000","total_volume":3000,"trash_type":"beverage_cartons","prediction":"2019-04-18T19:57:54.000Z","bin_type":"Bammens Memphis","installed_at":"2019-01-13T00:00:00.000Z"}},{"geometry":{"type":"Point","coordinates":[14.503807800000004,50.1102845]},"type":"Feature","properties":{"id":29973,"code":"S0029C00292","latitude":50.1102845,"longitude":14.503807800000004,"address":"Prouzova 792","district":null,"postal_code":"19000","total_volume":3000,"trash_type":"paper","prediction":"2019-04-14T15:50:22.000Z","bin_type":"Bammens Memphis","installed_at":"2019-01-13T00:00:00.000Z"}},{"geometry":{"type":"Point","coordinates":[14.503807800000004,50.1102845]},"type":"Feature","properties":{"id":29974,"code":"S0029C00293","latitude":50.1102845,"longitude":14.503807800000004,"address":"Prouzova 792","district":null,"postal_code":"19000","total_volume":3000,"trash_type":"plastic","prediction":null,"bin_type":"Bammens Memphis","installed_at":"2019-01-13T00:00:00.000Z"}},{"geometry":{"type":"Point","coordinates":[14.503807800000004,50.1102845]},"type":"Feature","properties":{"id":29975,"code":"S0029C00294","latitude":50.1102845,"longitude":14.503807800000004,"address":"Prouzova 792","district":null,"postal_code":"19000","total_volume":1500,"trash_type":"glass_coloured","prediction":"2019-04-17T01:20:07.000Z","bin_type":"Bammens Memphis","installed_at":"2019-01-13T00:00:00.000Z"}},{"geometry":{"type":"Point","coordinates":[14.503807800000004,50.1102845]},"type":"Feature","properties":{"id":29976,"code":"S0029C00295","latitude":50.1102845,"longitude":14.503807800000004,"address":"Prouzova 792","district":null,"postal_code":"19000","total_volume":1500,"trash_type":"glass_white","prediction":"2019-04-16T02:01:46.000Z","bin_type":"Bammens Memphis","installed_at":"2019-01-13T00:00:00.000Z"}},{"geometry":{"type":"Point","coordinates":[14.507365400000026,50.11714629999999]},"type":"Feature","properties":{"id":29829,"code":"S0030C00301","latitude":50.11714629999999,"longitude":14.507365400000026,"address":"Klíčovská 293","district":null,"postal_code":"19000","total_volume":1100,"trash_type":"metal","prediction":"2019-05-08T12:33:16.000Z","bin_type":"MINI H-A","installed_at":"2018-11-27T00:00:00.000Z"}},{"geometry":{"type":"Point","coordinates":[14.507365400000026,50.11714629999999]},"type":"Feature","properties":{"id":29860,"code":"S0030C00302","latitude":50.11714629999999,"longitude":14.507365400000026,"address":"Klíčovská 293","district":null,"postal_code":"19000","total_volume":3000,"trash_type":"paper","prediction":"2019-04-14T03:11:13.000Z","bin_type":"Bammens Memphis","installed_at":"2019-01-13T00:00:00.000Z"}},{"geometry":{"type":"Point","coordinates":[14.507365400000026,50.11714629999999]},"type":"Feature","properties":{"id":29861,"code":"S0030C00303","latitude":50.11714629999999,"longitude":14.507365400000026,"address":"Klíčovská 293","district":null,"postal_code":"19000","total_volume":3000,"trash_type":"beverage_cartons","prediction":"2019-05-07T18:53:14.000Z","bin_type":"Bammens Memphis","installed_at":"2019-01-13T00:00:00.000Z"}},{"geometry":{"type":"Point","coordinates":[14.507365400000026,50.11714629999999]},"type":"Feature","properties":{"id":29862,"code":"S0030C00304","latitude":50.11714629999999,"longitude":14.507365400000026,"address":"Klíčovská 293","district":null,"postal_code":"19000","total_volume":3000,"trash_type":"plastic","prediction":null,"bin_type":"Bammens Memphis","installed_at":"2019-01-13T00:00:00.000Z"}},{"geometry":{"type":"Point","coordinates":[14.507365400000026,50.11714629999999]},"type":"Feature","properties":{"id":29863,"code":"S0030C00305","latitude":50.11714629999999,"longitude":14.507365400000026,"address":"Klíčovská 293","district":null,"postal_code":"19000","total_volume":1500,"trash_type":"glass_white","prediction":"2019-04-27T17:11:29.000Z","bin_type":"Bammens Memphis","installed_at":"2019-01-13T00:00:00.000Z"}},{"geometry":{"type":"Point","coordinates":[14.507365400000026,50.11714629999999]},"type":"Feature","properties":{"id":29864,"code":"S0030C00306","latitude":50.11714629999999,"longitude":14.507365400000026,"address":"Klíčovská 293","district":null,"postal_code":"19000","total_volume":1500,"trash_type":"glass_coloured","prediction":null,"bin_type":"Bammens Memphis","installed_at":"2019-01-13T00:00:00.000Z"}},{"geometry":{"type":"Point","coordinates":[14.497955400000023,50.1173151]},"type":"Feature","properties":{"id":29977,"code":"S0031C00311","latitude":50.1173151,"longitude":14.497955400000023,"address":"Pískovcová 737","district":null,"postal_code":"19000","total_volume":3000,"trash_type":"beverage_cartons","prediction":null,"bin_type":"Bammens Memphis","installed_at":"2019-01-13T00:00:00.000Z"}},{"geometry":{"type":"Point","coordinates":[14.497955400000023,50.1173151]},"type":"Feature","properties":{"id":29978,"code":"S0031C00312","latitude":50.1173151,"longitude":14.497955400000023,"address":"Pískovcová 737","district":null,"postal_code":"19000","total_volume":3000,"trash_type":"paper","prediction":"2019-04-14T14:49:05.000Z","bin_type":"Bammens Memphis","installed_at":"2019-01-13T00:00:00.000Z"}},{"geometry":{"type":"Point","coordinates":[14.497955400000023,50.1173151]},"type":"Feature","properties":{"id":29979,"code":"S0031C00313","latitude":50.1173151,"longitude":14.497955400000023,"address":"Pískovcová 737","district":null,"postal_code":"19000","total_volume":3000,"trash_type":"plastic","prediction":null,"bin_type":"Bammens Memphis","installed_at":"2019-01-13T00:00:00.000Z"}},{"geometry":{"type":"Point","coordinates":[14.497955400000023,50.1173151]},"type":"Feature","properties":{"id":29980,"code":"S0031C00314","latitude":50.1173151,"longitude":14.497955400000023,"address":"Pískovcová 737","district":null,"postal_code":"19000","total_volume":1500,"trash_type":"glass_coloured","prediction":null,"bin_type":"Bammens Memphis","installed_at":"2019-01-13T00:00:00.000Z"}},{"geometry":{"type":"Point","coordinates":[14.497955400000023,50.1173151]},"type":"Feature","properties":{"id":29981,"code":"S0031C00315","latitude":50.1173151,"longitude":14.497955400000023,"address":"Pískovcová 737","district":null,"postal_code":"19000","total_volume":1500,"trash_type":"glass_white","prediction":null,"bin_type":"Bammens Memphis","installed_at":"2019-01-13T00:00:00.000Z"}},{"geometry":{"type":"Point","coordinates":[14.492134999999962,50.1219175]},"type":"Feature","properties":{"id":29982,"code":"S0032C00321","latitude":50.1219175,"longitude":14.492134999999962,"address":"Veltruská 538","district":null,"postal_code":"19000","total_volume":3000,"trash_type":"beverage_cartons","prediction":null,"bin_type":"Bammens Memphis","installed_at":"2019-01-13T00:00:00.000Z"}},{"geometry":{"type":"Point","coordinates":[14.492134999999962,50.1219175]},"type":"Feature","properties":{"id":29983,"code":"S0032C00322","latitude":50.1219175,"longitude":14.492134999999962,"address":"Veltruská 538","district":null,"postal_code":"19000","total_volume":3000,"trash_type":"paper","prediction":null,"bin_type":"Bammens Memphis","installed_at":"2019-01-13T00:00:00.000Z"}},{"geometry":{"type":"Point","coordinates":[14.492134999999962,50.1219175]},"type":"Feature","properties":{"id":29984,"code":"S0032C00323","latitude":50.1219175,"longitude":14.492134999999962,"address":"Veltruská 538","district":null,"postal_code":"19000","total_volume":3000,"trash_type":"plastic","prediction":null,"bin_type":"Bammens Memphis","installed_at":"2019-01-13T00:00:00.000Z"}},{"geometry":{"type":"Point","coordinates":[14.492134999999962,50.1219175]},"type":"Feature","properties":{"id":29985,"code":"S0032C00324","latitude":50.1219175,"longitude":14.492134999999962,"address":"Veltruská 538","district":null,"postal_code":"19000","total_volume":1500,"trash_type":"glass_coloured","prediction":"2019-04-16T11:49:45.000Z","bin_type":"Bammens Memphis","installed_at":"2019-01-13T00:00:00.000Z"}},{"geometry":{"type":"Point","coordinates":[14.492134999999962,50.1219175]},"type":"Feature","properties":{"id":29986,"code":"S0032C00325","latitude":50.1219175,"longitude":14.492134999999962,"address":"Veltruská 538","district":null,"postal_code":"19000","total_volume":1500,"trash_type":"glass_white","prediction":"2019-04-17T03:19:59.000Z","bin_type":"Bammens Memphis","installed_at":"2019-01-13T00:00:00.000Z"}},{"geometry":{"type":"Point","coordinates":[14.505569100000002,50.1258554]},"type":"Feature","properties":{"id":29987,"code":"S0033C00331","latitude":50.1258554,"longitude":14.505569100000002,"address":"Kytlická  779","district":null,"postal_code":"19000","total_volume":3000,"trash_type":"beverage_cartons","prediction":null,"bin_type":"Bammens Memphis","installed_at":"2019-01-13T00:00:00.000Z"}},{"geometry":{"type":"Point","coordinates":[14.505569100000002,50.1258554]},"type":"Feature","properties":{"id":29988,"code":"S0033C00332","latitude":50.1258554,"longitude":14.505569100000002,"address":"Kytlická  779","district":null,"postal_code":"19000","total_volume":3000,"trash_type":"paper","prediction":null,"bin_type":"Bammens Memphis","installed_at":"2019-01-13T00:00:00.000Z"}},{"geometry":{"type":"Point","coordinates":[14.505569100000002,50.1258554]},"type":"Feature","properties":{"id":29989,"code":"S0033C00333","latitude":50.1258554,"longitude":14.505569100000002,"address":"Kytlická  779","district":null,"postal_code":"19000","total_volume":3000,"trash_type":"plastic","prediction":null,"bin_type":"Bammens Memphis","installed_at":"2019-01-13T00:00:00.000Z"}},{"geometry":{"type":"Point","coordinates":[14.505569100000002,50.1258554]},"type":"Feature","properties":{"id":29990,"code":"S0033C00334","latitude":50.1258554,"longitude":14.505569100000002,"address":"Kytlická  779","district":null,"postal_code":"19000","total_volume":1500,"trash_type":"glass_coloured","prediction":"2019-04-27T16:49:19.000Z","bin_type":"Bammens Memphis","installed_at":"2019-01-13T00:00:00.000Z"}},{"geometry":{"type":"Point","coordinates":[14.505569100000002,50.1258554]},"type":"Feature","properties":{"id":29991,"code":"S0033C00335","latitude":50.1258554,"longitude":14.505569100000002,"address":"Kytlická  779","district":null,"postal_code":"19000","total_volume":1500,"trash_type":"glass_white","prediction":"2019-05-08T09:34:32.000Z","bin_type":"Bammens Memphis","installed_at":"2019-01-13T00:00:00.000Z"}},{"geometry":{"type":"Point","coordinates":[14.498731499999963,50.1232628]},"type":"Feature","properties":{"id":29992,"code":"S0034C00341","latitude":50.1232628,"longitude":14.498731499999963,"address":"Mimoňská 1243","district":null,"postal_code":"19000","total_volume":3000,"trash_type":"beverage_cartons","prediction":"2019-04-15T02:22:02.000Z","bin_type":"Bammens Belfast","installed_at":"2018-12-18T00:00:00.000Z"}},{"geometry":{"type":"Point","coordinates":[14.498731499999963,50.1232628]},"type":"Feature","properties":{"id":29993,"code":"S0034C00342","latitude":50.1232628,"longitude":14.498731499999963,"address":"Mimoňská 1243","district":null,"postal_code":"19000","total_volume":3000,"trash_type":"paper","prediction":"2019-04-14T12:32:41.000Z","bin_type":"Bammens Belfast","installed_at":"2018-12-18T00:00:00.000Z"}},{"geometry":{"type":"Point","coordinates":[14.498731499999963,50.1232628]},"type":"Feature","properties":{"id":29994,"code":"S0034C00343","latitude":50.1232628,"longitude":14.498731499999963,"address":"Mimoňská 1243","district":null,"postal_code":"19000","total_volume":3000,"trash_type":"plastic","prediction":null,"bin_type":"Bammens Belfast","installed_at":"2018-12-18T00:00:00.000Z"}},{"geometry":{"type":"Point","coordinates":[14.498731499999963,50.1232628]},"type":"Feature","properties":{"id":29995,"code":"S0034C00344","latitude":50.1232628,"longitude":14.498731499999963,"address":"Mimoňská 1243","district":null,"postal_code":"19000","total_volume":1500,"trash_type":"glass_coloured","prediction":"2019-05-01T17:26:03.000Z","bin_type":"Bammens Belfast","installed_at":"2018-12-18T00:00:00.000Z"}},{"geometry":{"type":"Point","coordinates":[14.498731499999963,50.1232628]},"type":"Feature","properties":{"id":29996,"code":"S0034C00345","latitude":50.1232628,"longitude":14.498731499999963,"address":"Mimoňská 1243","district":null,"postal_code":"19000","total_volume":1500,"trash_type":"glass_white","prediction":"2019-05-01T16:25:24.000Z","bin_type":"Bammens Belfast","installed_at":"2018-12-18T00:00:00.000Z"}},{"geometry":{"type":"Point","coordinates":[14.491598100000033,50.12652689999999]},"type":"Feature","properties":{"id":29997,"code":"S0035C00351","latitude":50.12652689999999,"longitude":14.491598100000033,"address":"Jablonecká 358/25","district":null,"postal_code":"19000","total_volume":3000,"trash_type":"beverage_cartons","prediction":null,"bin_type":"Bammens Memphis","installed_at":"2019-01-13T00:00:00.000Z"}},{"geometry":{"type":"Point","coordinates":[14.491598100000033,50.12652689999999]},"type":"Feature","properties":{"id":29998,"code":"S0035C00352","latitude":50.12652689999999,"longitude":14.491598100000033,"address":"Jablonecká 358/25","district":null,"postal_code":"19000","total_volume":3000,"trash_type":"paper","prediction":null,"bin_type":"Bammens Memphis","installed_at":"2019-01-13T00:00:00.000Z"}},{"geometry":{"type":"Point","coordinates":[14.491598100000033,50.12652689999999]},"type":"Feature","properties":{"id":29999,"code":"S0035C00353","latitude":50.12652689999999,"longitude":14.491598100000033,"address":"Jablonecká 358/25","district":null,"postal_code":"19000","total_volume":3000,"trash_type":"plastic","prediction":"2019-04-12T17:24:22.000Z","bin_type":"Bammens Memphis","installed_at":"2019-01-13T00:00:00.000Z"}},{"geometry":{"type":"Point","coordinates":[14.491598100000033,50.12652689999999]},"type":"Feature","properties":{"id":30000,"code":"S0035C00354","latitude":50.12652689999999,"longitude":14.491598100000033,"address":"Jablonecká 358/25","district":null,"postal_code":"19000","total_volume":1500,"trash_type":"glass_coloured","prediction":"2019-04-16T20:52:25.000Z","bin_type":"Bammens Memphis","installed_at":"2019-01-13T00:00:00.000Z"}},{"geometry":{"type":"Point","coordinates":[14.491598100000033,50.12652689999999]},"type":"Feature","properties":{"id":30001,"code":"S0035C00355","latitude":50.12652689999999,"longitude":14.491598100000033,"address":"Jablonecká 358/25","district":null,"postal_code":"19000","total_volume":1500,"trash_type":"glass_white","prediction":"2019-05-10T18:12:03.000Z","bin_type":"Bammens Memphis","installed_at":"2019-01-13T00:00:00.000Z"}},{"geometry":{"type":"Point","coordinates":[14.489118500000018,50.1246957]},"type":"Feature","properties":{"id":30002,"code":"S0036C00361","latitude":50.1246957,"longitude":14.489118500000018,"address":"Rumburská 244","district":null,"postal_code":"19000","total_volume":3000,"trash_type":"beverage_cartons","prediction":null,"bin_type":"Bammens Memphis","installed_at":"2019-01-13T00:00:00.000Z"}},{"geometry":{"type":"Point","coordinates":[14.489118500000018,50.1246957]},"type":"Feature","properties":{"id":30003,"code":"S0036C00362","latitude":50.1246957,"longitude":14.489118500000018,"address":"Rumburská 244","district":null,"postal_code":"19000","total_volume":3000,"trash_type":"paper","prediction":"2019-04-14T12:56:18.000Z","bin_type":"Bammens Memphis","installed_at":"2019-01-13T00:00:00.000Z"}},{"geometry":{"type":"Point","coordinates":[14.489118500000018,50.1246957]},"type":"Feature","properties":{"id":30004,"code":"S0036C00363","latitude":50.1246957,"longitude":14.489118500000018,"address":"Rumburská 244","district":null,"postal_code":"19000","total_volume":3000,"trash_type":"plastic","prediction":"2019-04-15T10:12:26.000Z","bin_type":"Bammens Memphis","installed_at":"2019-01-13T00:00:00.000Z"}},{"geometry":{"type":"Point","coordinates":[14.489118500000018,50.1246957]},"type":"Feature","properties":{"id":30005,"code":"S0036C00364","latitude":50.1246957,"longitude":14.489118500000018,"address":"Rumburská 244","district":null,"postal_code":"19000","total_volume":1500,"trash_type":"glass_coloured","prediction":"2019-04-23T00:03:13.000Z","bin_type":"Bammens Memphis","installed_at":"2019-01-13T00:00:00.000Z"}},{"geometry":{"type":"Point","coordinates":[14.489118500000018,50.1246957]},"type":"Feature","properties":{"id":30006,"code":"S0036C00365","latitude":50.1246957,"longitude":14.489118500000018,"address":"Rumburská 244","district":null,"postal_code":"19000","total_volume":1500,"trash_type":"glass_white","prediction":"2019-04-24T23:24:43.000Z","bin_type":"Bammens Memphis","installed_at":"2019-01-13T00:00:00.000Z"}},{"geometry":{"type":"Point","coordinates":[14.490452399999981,50.12321859999999]},"type":"Feature","properties":{"id":30007,"code":"S0037C00371","latitude":50.12321859999999,"longitude":14.490452399999981,"address":"Bohušovická-Bílinská 504/21","district":null,"postal_code":"19000","total_volume":3000,"trash_type":"beverage_cartons","prediction":null,"bin_type":"Bammens Memphis","installed_at":"2019-01-13T00:00:00.000Z"}},{"geometry":{"type":"Point","coordinates":[14.490452399999981,50.12321859999999]},"type":"Feature","properties":{"id":30008,"code":"S0037C00372","latitude":50.12321859999999,"longitude":14.490452399999981,"address":"Bohušovická-Bílinská 504/21","district":null,"postal_code":"19000","total_volume":3000,"trash_type":"paper","prediction":"2019-04-12T23:57:57.000Z","bin_type":"Bammens Memphis","installed_at":"2019-01-13T00:00:00.000Z"}},{"geometry":{"type":"Point","coordinates":[14.490452399999981,50.12321859999999]},"type":"Feature","properties":{"id":30009,"code":"S0037C00373","latitude":50.12321859999999,"longitude":14.490452399999981,"address":"Bohušovická-Bílinská 504/21","district":null,"postal_code":"19000","total_volume":3000,"trash_type":"plastic","prediction":null,"bin_type":"Bammens Memphis","installed_at":"2019-01-13T00:00:00.000Z"}},{"geometry":{"type":"Point","coordinates":[14.490452399999981,50.12321859999999]},"type":"Feature","properties":{"id":30010,"code":"S0037C00374","latitude":50.12321859999999,"longitude":14.490452399999981,"address":"Bohušovická-Bílinská 504/21","district":null,"postal_code":"19000","total_volume":1500,"trash_type":"glass_coloured","prediction":"2019-04-21T16:53:26.000Z","bin_type":"Bammens Memphis","installed_at":"2019-01-13T00:00:00.000Z"}},{"geometry":{"type":"Point","coordinates":[14.490452399999981,50.12321859999999]},"type":"Feature","properties":{"id":30011,"code":"S0037C00375","latitude":50.12321859999999,"longitude":14.490452399999981,"address":"Bohušovická-Bílinská 504/21","district":null,"postal_code":"19000","total_volume":1500,"trash_type":"glass_white","prediction":"2019-04-25T01:46:38.000Z","bin_type":"Bammens Memphis","installed_at":"2019-01-13T00:00:00.000Z"}},{"geometry":{"type":"Point","coordinates":[14.506988699999965,50.1098446]},"type":"Feature","properties":{"id":30012,"code":"S0038C00381","latitude":50.1098446,"longitude":14.506988699999965,"address":"Nemocniční 781","district":null,"postal_code":"19000","total_volume":3000,"trash_type":"paper","prediction":"2019-04-14T17:34:50.000Z","bin_type":"Bammens Memphis","installed_at":"2019-01-13T00:00:00.000Z"}},{"geometry":{"type":"Point","coordinates":[14.506988699999965,50.1098446]},"type":"Feature","properties":{"id":30013,"code":"S0038C00382","latitude":50.1098446,"longitude":14.506988699999965,"address":"Nemocniční 781","district":null,"postal_code":"19000","total_volume":3000,"trash_type":"plastic","prediction":null,"bin_type":"Bammens Memphis","installed_at":"2019-01-13T00:00:00.000Z"}},{"geometry":{"type":"Point","coordinates":[14.506988699999965,50.1098446]},"type":"Feature","properties":{"id":30014,"code":"S0038C00383","latitude":50.1098446,"longitude":14.506988699999965,"address":"Nemocniční 781","district":null,"postal_code":"19000","total_volume":1500,"trash_type":"glass_coloured","prediction":"2019-05-10T00:00:09.000Z","bin_type":"Bammens Memphis","installed_at":"2019-01-13T00:00:00.000Z"}},{"geometry":{"type":"Point","coordinates":[14.506988699999965,50.1098446]},"type":"Feature","properties":{"id":30015,"code":"S0038C00384","latitude":50.1098446,"longitude":14.506988699999965,"address":"Nemocniční 781","district":null,"postal_code":"19000","total_volume":1500,"trash_type":"glass_white","prediction":"2019-04-22T14:42:46.000Z","bin_type":"Bammens Memphis","installed_at":"2019-01-13T00:00:00.000Z"}},{"geometry":{"type":"Point","coordinates":[14.506988699999965,50.1098446]},"type":"Feature","properties":{"id":30016,"code":"S0038C00385","latitude":50.1098446,"longitude":14.506988699999965,"address":"Nemocniční 781","district":null,"postal_code":"19000","total_volume":3000,"trash_type":"beverage_cartons","prediction":"2019-04-16T01:40:16.000Z","bin_type":"Bammens Memphis","installed_at":"2019-01-13T00:00:00.000Z"}},{"geometry":{"type":"Point","coordinates":[14.489894499999991,50.1077946]},"type":"Feature","properties":{"id":30017,"code":"S0039C00391","latitude":50.1077946,"longitude":14.489894499999991,"address":"Čihákova Matějkova 9652","district":null,"postal_code":"19000","total_volume":3000,"trash_type":"paper","prediction":null,"bin_type":"Bammens Memphis","installed_at":"2019-01-13T00:00:00.000Z"}},{"geometry":{"type":"Point","coordinates":[14.489894499999991,50.1077946]},"type":"Feature","properties":{"id":30018,"code":"S0039C00392","latitude":50.1077946,"longitude":14.489894499999991,"address":"Čihákova Matějkova 9652","district":null,"postal_code":"19000","total_volume":3000,"trash_type":"plastic","prediction":null,"bin_type":"Bammens Memphis","installed_at":"2019-01-13T00:00:00.000Z"}},{"geometry":{"type":"Point","coordinates":[14.489894499999991,50.1077946]},"type":"Feature","properties":{"id":30019,"code":"S0039C00393","latitude":50.1077946,"longitude":14.489894499999991,"address":"Čihákova Matějkova 9652","district":null,"postal_code":"19000","total_volume":1500,"trash_type":"glass_coloured","prediction":"2019-04-26T08:53:00.000Z","bin_type":"Bammens Memphis","installed_at":"2019-01-13T00:00:00.000Z"}},{"geometry":{"type":"Point","coordinates":[14.489894499999991,50.1077946]},"type":"Feature","properties":{"id":30020,"code":"S0039C00394","latitude":50.1077946,"longitude":14.489894499999991,"address":"Čihákova Matějkova 9652","district":null,"postal_code":"19000","total_volume":1500,"trash_type":"glass_white","prediction":"2019-05-03T06:00:16.000Z","bin_type":"Bammens Memphis","installed_at":"2019-01-13T00:00:00.000Z"}},{"geometry":{"type":"Point","coordinates":[14.489894499999991,50.1077946]},"type":"Feature","properties":{"id":30021,"code":"S0039C00395","latitude":50.1077946,"longitude":14.489894499999991,"address":"Čihákova Matějkova 9652","district":null,"postal_code":"19000","total_volume":3000,"trash_type":"beverage_cartons","prediction":"2019-04-16T04:23:07.000Z","bin_type":"Bammens Memphis","installed_at":"2019-01-13T00:00:00.000Z"}},{"geometry":{"type":"Point","coordinates":[14.450595399999997,50.108311]},"type":"Feature","properties":{"id":29908,"code":"S0040C00401","latitude":50.108311,"longitude":14.450595399999997,"address":"Ortenovo náměstí 1310","district":null,"postal_code":"17000","total_volume":3000,"trash_type":"paper","prediction":"2019-04-14T17:11:15.000Z","bin_type":"Schäfer/Europa-OV","installed_at":"2018-12-18T00:00:00.000Z"}},{"geometry":{"type":"Point","coordinates":[14.450595399999997,50.108311]},"type":"Feature","properties":{"id":29909,"code":"S0040C00402","latitude":50.108311,"longitude":14.450595399999997,"address":"Ortenovo náměstí 1310","district":null,"postal_code":"17000","total_volume":3000,"trash_type":"plastic","prediction":"2019-04-14T09:19:41.000Z","bin_type":"Schäfer/Europa-OV","installed_at":"2018-12-18T00:00:00.000Z"}},{"geometry":{"type":"Point","coordinates":[14.435725199999979,50.1009627]},"type":"Feature","properties":{"id":29934,"code":"S0041C00411","latitude":50.1009627,"longitude":14.435725199999979,"address":"Řezáčovo náměstí 1256","district":null,"postal_code":"17000","total_volume":1500,"trash_type":"glass_white","prediction":"2019-04-23T07:18:41.000Z","bin_type":"Schäfer/Europa-OR/GB","installed_at":"2018-12-05T00:00:00.000Z"}},{"geometry":{"type":"Point","coordinates":[14.435725199999979,50.1009627]},"type":"Feature","properties":{"id":29935,"code":"S0041C00412","latitude":50.1009627,"longitude":14.435725199999979,"address":"Řezáčovo náměstí 1256","district":null,"postal_code":"17000","total_volume":1500,"trash_type":"glass_coloured","prediction":null,"bin_type":"Schäfer/Europa-OR/GB","installed_at":"2018-12-05T00:00:00.000Z"}},{"geometry":{"type":"Point","coordinates":[14.435725199999979,50.1009627]},"type":"Feature","properties":{"id":29936,"code":"S0041C00413","latitude":50.1009627,"longitude":14.435725199999979,"address":"Řezáčovo náměstí 1256","district":null,"postal_code":"17000","total_volume":3000,"trash_type":"paper","prediction":"2019-04-14T01:49:45.000Z","bin_type":"Schäfer/Europa-OR/GB","installed_at":"2018-12-05T00:00:00.000Z"}},{"geometry":{"type":"Point","coordinates":[14.435725199999979,50.1009627]},"type":"Feature","properties":{"id":29937,"code":"S0041C00414","latitude":50.1009627,"longitude":14.435725199999979,"address":"Řezáčovo náměstí 1256","district":null,"postal_code":"17000","total_volume":3000,"trash_type":"plastic","prediction":"2019-04-13T10:26:57.000Z","bin_type":"Schäfer/Europa-OR/GB","installed_at":"2018-12-05T00:00:00.000Z"}},{"geometry":{"type":"Point","coordinates":[14.448507651713957,50.065600927270616]},"type":"Feature","properties":{"id":29796,"code":"S0042C00421","latitude":50.065600927270616,"longitude":14.448507651713957,"address":"U Vršovického nádraží 0","district":null,"postal_code":"10000","total_volume":1500,"trash_type":"glass_coloured","prediction":"2019-04-25T12:59:43.000Z","bin_type":"Schäfer/Europa-OR/GB","installed_at":"2018-11-27T00:00:00.000Z"}},{"geometry":{"type":"Point","coordinates":[14.448507651713957,50.065600927270616]},"type":"Feature","properties":{"id":29797,"code":"S0042C00422","latitude":50.065600927270616,"longitude":14.448507651713957,"address":"U Vršovického nádraží 0","district":null,"postal_code":"10000","total_volume":1500,"trash_type":"glass_white","prediction":"2023-03-13T07:36:43.000Z","bin_type":"Schäfer/Europa-OR/GB","installed_at":"2018-11-27T00:00:00.000Z"}},{"geometry":{"type":"Point","coordinates":[14.448507651713957,50.065600927270616]},"type":"Feature","properties":{"id":29798,"code":"S0042C00423","latitude":50.065600927270616,"longitude":14.448507651713957,"address":"U Vršovického nádraží 0","district":null,"postal_code":"10000","total_volume":1500,"trash_type":"beverage_cartons","prediction":"2019-04-21T00:54:22.000Z","bin_type":"Schäfer/Europa-OR/GB","installed_at":"2018-11-27T00:00:00.000Z"}},{"geometry":{"type":"Point","coordinates":[14.448507651713957,50.065600927270616]},"type":"Feature","properties":{"id":29799,"code":"S0042C00424","latitude":50.065600927270616,"longitude":14.448507651713957,"address":"U Vršovického nádraží 0","district":null,"postal_code":"10000","total_volume":1500,"trash_type":"paper","prediction":"2019-04-14T02:01:03.000Z","bin_type":"Schäfer/Europa-OR/GB","installed_at":"2018-11-27T00:00:00.000Z"}},{"geometry":{"type":"Point","coordinates":[14.448507651713957,50.065600927270616]},"type":"Feature","properties":{"id":29800,"code":"S0042C00425","latitude":50.065600927270616,"longitude":14.448507651713957,"address":"U Vršovického nádraží 0","district":null,"postal_code":"10000","total_volume":3000,"trash_type":"paper","prediction":"2019-04-14T15:17:44.000Z","bin_type":"Schäfer/Europa-OR/GB","installed_at":"2018-11-27T00:00:00.000Z"}},{"geometry":{"type":"Point","coordinates":[14.448507651713957,50.065600927270616]},"type":"Feature","properties":{"id":29801,"code":"S0042C00426","latitude":50.065600927270616,"longitude":14.448507651713957,"address":"U Vršovického nádraží 0","district":null,"postal_code":"10000","total_volume":3000,"trash_type":"plastic","prediction":"2019-04-13T12:18:37.000Z","bin_type":"Schäfer/Europa-OR/GB","installed_at":"2018-11-27T00:00:00.000Z"}},{"geometry":{"type":"Point","coordinates":[14.506926000000021,50.05630069999999]},"type":"Feature","properties":{"id":29790,"code":"S0043C00431","latitude":50.05630069999999,"longitude":14.506926000000021,"address":"Topolová-Jabloňová 2963/12","district":null,"postal_code":"10000","total_volume":1500,"trash_type":"glass_coloured","prediction":null,"bin_type":"Bammens Memphis","installed_at":"2018-11-27T00:00:00.000Z"}},{"geometry":{"type":"Point","coordinates":[14.506926000000021,50.05630069999999]},"type":"Feature","properties":{"id":29791,"code":"S0043C00432","latitude":50.05630069999999,"longitude":14.506926000000021,"address":"Topolová-Jabloňová 2963/12","district":null,"postal_code":"10000","total_volume":1500,"trash_type":"glass_white","prediction":"2019-04-18T04:10:37.000Z","bin_type":"Bammens Memphis","installed_at":"2018-11-27T00:00:00.000Z"}},{"geometry":{"type":"Point","coordinates":[14.506926000000021,50.05630069999999]},"type":"Feature","properties":{"id":29792,"code":"S0043C00433","latitude":50.05630069999999,"longitude":14.506926000000021,"address":"Topolová-Jabloňová 2963/12","district":null,"postal_code":"10000","total_volume":3000,"trash_type":"paper","prediction":"2019-04-15T01:19:18.000Z","bin_type":"Bammens Memphis","installed_at":null}},{"geometry":{"type":"Point","coordinates":[14.506926000000021,50.05630069999999]},"type":"Feature","properties":{"id":29793,"code":"S0043C00434","latitude":50.05630069999999,"longitude":14.506926000000021,"address":"Topolová-Jabloňová 2963/12","district":null,"postal_code":"10000","total_volume":3000,"trash_type":"plastic","prediction":null,"bin_type":"Bammens Memphis","installed_at":"2018-11-27T00:00:00.000Z"}},{"geometry":{"type":"Point","coordinates":[14.506926000000021,50.05630069999999]},"type":"Feature","properties":{"id":29794,"code":"S0043C00435","latitude":50.05630069999999,"longitude":14.506926000000021,"address":"Topolová-Jabloňová 2963/12","district":null,"postal_code":"10000","total_volume":3000,"trash_type":"beverage_cartons","prediction":"2019-04-28T13:11:54.000Z","bin_type":"Bammens Memphis","installed_at":"2018-11-27T00:00:00.000Z"}},{"geometry":{"type":"Point","coordinates":[14.506926000000021,50.05630069999999]},"type":"Feature","properties":{"id":29795,"code":"S0043C00436","latitude":50.05630069999999,"longitude":14.506926000000021,"address":"Topolová-Jabloňová 2963/12","district":null,"postal_code":"10000","total_volume":1100,"trash_type":"metal","prediction":null,"bin_type":"MINI H-A","installed_at":"2018-11-27T00:00:00.000Z"}},{"geometry":{"type":"Point","coordinates":[14.476854900000035,50.0729034]},"type":"Feature","properties":{"id":30022,"code":"S0044C00441","latitude":50.0729034,"longitude":14.476854900000035,"address":"Litevská 1174/8","district":null,"postal_code":"10000","total_volume":1500,"trash_type":"glass_coloured","prediction":null,"bin_type":"Bammens Memphis","installed_at":"2018-12-18T00:00:00.000Z"}},{"geometry":{"type":"Point","coordinates":[14.476854900000035,50.0729034]},"type":"Feature","properties":{"id":30023,"code":"S0044C00442","latitude":50.0729034,"longitude":14.476854900000035,"address":"Litevská 1174/8","district":null,"postal_code":"10000","total_volume":1500,"trash_type":"glass_white","prediction":"2019-04-14T21:02:51.000Z","bin_type":"Bammens Memphis","installed_at":"2018-12-18T00:00:00.000Z"}},{"geometry":{"type":"Point","coordinates":[14.476854900000035,50.0729034]},"type":"Feature","properties":{"id":30024,"code":"S0044C00443","latitude":50.0729034,"longitude":14.476854900000035,"address":"Litevská 1174/8","district":null,"postal_code":"10000","total_volume":3000,"trash_type":"paper","prediction":null,"bin_type":"Bammens Memphis","installed_at":"2018-12-18T00:00:00.000Z"}},{"geometry":{"type":"Point","coordinates":[14.476854900000035,50.0729034]},"type":"Feature","properties":{"id":30025,"code":"S0044C00444","latitude":50.0729034,"longitude":14.476854900000035,"address":"Litevská 1174/8","district":null,"postal_code":"10000","total_volume":3000,"trash_type":"plastic","prediction":"2019-04-12T09:42:13.000Z","bin_type":"Bammens Memphis","installed_at":"2018-12-18T00:00:00.000Z"}},{"geometry":{"type":"Point","coordinates":[14.476854900000035,50.0729034]},"type":"Feature","properties":{"id":30026,"code":"S0044C00445","latitude":50.0729034,"longitude":14.476854900000035,"address":"Litevská 1174/8","district":null,"postal_code":"10000","total_volume":1500,"trash_type":"beverage_cartons","prediction":null,"bin_type":"Bammens Memphis","installed_at":"2019-01-13T00:00:00.000Z"}},{"geometry":{"type":"Point","coordinates":[14.451140099999975,50.0701158]},"type":"Feature","properties":{"id":29830,"code":"S0045C00451","latitude":50.0701158,"longitude":14.451140099999975,"address":"Moskevská 1403","district":null,"postal_code":"10000","total_volume":1500,"trash_type":"beverage_cartons","prediction":null,"bin_type":"Bammens Memphis","installed_at":"2018-11-27T00:00:00.000Z"}},{"geometry":{"type":"Point","coordinates":[14.451140099999975,50.0701158]},"type":"Feature","properties":{"id":29831,"code":"S0045C00452","latitude":50.0701158,"longitude":14.451140099999975,"address":"Moskevská 1403","district":null,"postal_code":"10000","total_volume":1500,"trash_type":"glass_coloured","prediction":null,"bin_type":"Bammens Memphis","installed_at":"2018-11-27T00:00:00.000Z"}},{"geometry":{"type":"Point","coordinates":[14.451140099999975,50.0701158]},"type":"Feature","properties":{"id":29832,"code":"S0045C00453","latitude":50.0701158,"longitude":14.451140099999975,"address":"Moskevská 1403","district":null,"postal_code":"10000","total_volume":1500,"trash_type":"glass_white","prediction":"2019-04-24T07:52:16.000Z","bin_type":"Bammens Memphis","installed_at":"2018-11-27T00:00:00.000Z"}},{"geometry":{"type":"Point","coordinates":[14.451140099999975,50.0701158]},"type":"Feature","properties":{"id":29833,"code":"S0045C00454","latitude":50.0701158,"longitude":14.451140099999975,"address":"Moskevská 1403","district":null,"postal_code":"10000","total_volume":1500,"trash_type":"plastic","prediction":null,"bin_type":"Bammens Memphis","installed_at":"2018-11-27T00:00:00.000Z"}},{"geometry":{"type":"Point","coordinates":[14.451140099999975,50.0701158]},"type":"Feature","properties":{"id":29834,"code":"S0045C00455","latitude":50.0701158,"longitude":14.451140099999975,"address":"Moskevská 1403","district":null,"postal_code":"10000","total_volume":3000,"trash_type":"plastic","prediction":null,"bin_type":"Bammens Memphis","installed_at":"2018-11-27T00:00:00.000Z"}},{"geometry":{"type":"Point","coordinates":[14.451140099999975,50.0701158]},"type":"Feature","properties":{"id":29835,"code":"S0045C00456","latitude":50.0701158,"longitude":14.451140099999975,"address":"Moskevská 1403","district":null,"postal_code":"10000","total_volume":3000,"trash_type":"paper","prediction":null,"bin_type":"Bammens Memphis","installed_at":"2018-11-27T00:00:00.000Z"}},{"geometry":{"type":"Point","coordinates":[14.49945600000001,50.08035899999999]},"type":"Feature","properties":{"id":29802,"code":"S0046C00461","latitude":50.08035899999999,"longitude":14.49945600000001,"address":"Nad Úžlabinou 708","district":null,"postal_code":"10000","total_volume":1500,"trash_type":"beverage_cartons","prediction":null,"bin_type":"Schäfer/Europa-OV","installed_at":"2018-11-27T00:00:00.000Z"}},{"geometry":{"type":"Point","coordinates":[14.49945600000001,50.08035899999999]},"type":"Feature","properties":{"id":29803,"code":"S0046C00462","latitude":50.08035899999999,"longitude":14.49945600000001,"address":"Nad Úžlabinou 708","district":null,"postal_code":"10000","total_volume":1500,"trash_type":"plastic","prediction":null,"bin_type":"Schäfer/Europa-OV","installed_at":"2018-11-27T00:00:00.000Z"}},{"geometry":{"type":"Point","coordinates":[14.49945600000001,50.08035899999999]},"type":"Feature","properties":{"id":29804,"code":"S0046C00463","latitude":50.08035899999999,"longitude":14.49945600000001,"address":"Nad Úžlabinou 708","district":null,"postal_code":"10000","total_volume":3000,"trash_type":"paper","prediction":"2019-04-16T06:13:53.000Z","bin_type":"Schäfer/Europa-OV","installed_at":null}},{"geometry":{"type":"Point","coordinates":[14.49945600000001,50.08035899999999]},"type":"Feature","properties":{"id":29805,"code":"S0046C00464","latitude":50.08035899999999,"longitude":14.49945600000001,"address":"Nad Úžlabinou 708","district":null,"postal_code":"10000","total_volume":3000,"trash_type":"plastic","prediction":"2019-04-17T00:19:54.000Z","bin_type":"Schäfer/Europa-OV","installed_at":"2018-11-27T00:00:00.000Z"}},{"geometry":{"type":"Point","coordinates":[14.506979000000001,50.13452419999999]},"type":"Feature","properties":{"id":29806,"code":"S0047C00471","latitude":50.13452419999999,"longitude":14.506979000000001,"address":"Tupolevova 477","district":null,"postal_code":"19000","total_volume":1500,"trash_type":"glass_coloured","prediction":"2019-04-12T06:44:48.000Z","bin_type":"Meva Top System","installed_at":"2018-11-27T00:00:00.000Z"}},{"geometry":{"type":"Point","coordinates":[14.506979000000001,50.13452419999999]},"type":"Feature","properties":{"id":29807,"code":"S0047C00472","latitude":50.13452419999999,"longitude":14.506979000000001,"address":"Tupolevova 477","district":null,"postal_code":"19000","total_volume":1500,"trash_type":"glass_white","prediction":"2019-05-18T00:02:48.000Z","bin_type":"Meva Top System","installed_at":"2018-11-27T00:00:00.000Z"}},{"geometry":{"type":"Point","coordinates":[14.506979000000001,50.13452419999999]},"type":"Feature","properties":{"id":29808,"code":"S0047C00473","latitude":50.13452419999999,"longitude":14.506979000000001,"address":"Tupolevova 477","district":null,"postal_code":"19000","total_volume":3000,"trash_type":"paper","prediction":null,"bin_type":"Meva Top System","installed_at":"2018-11-27T00:00:00.000Z"}},{"geometry":{"type":"Point","coordinates":[14.506979000000001,50.13452419999999]},"type":"Feature","properties":{"id":29809,"code":"S0047C00474","latitude":50.13452419999999,"longitude":14.506979000000001,"address":"Tupolevova 477","district":null,"postal_code":"19000","total_volume":3000,"trash_type":"plastic","prediction":null,"bin_type":"Meva Top System","installed_at":"2018-11-27T00:00:00.000Z"}},{"geometry":{"type":"Point","coordinates":[14.45158600000002,50.085211]},"type":"Feature","properties":{"id":30027,"code":"S0048C00481","latitude":50.085211,"longitude":14.45158600000002,"address":"Štítného 629/23","district":null,"postal_code":"13000","total_volume":1500,"trash_type":"beverage_cartons","prediction":"2019-04-15T09:27:41.000Z","bin_type":"Schäfer/Europa-OR/GB","installed_at":"2018-11-27T00:00:00.000Z"}},{"geometry":{"type":"Point","coordinates":[14.45158600000002,50.085211]},"type":"Feature","properties":{"id":30028,"code":"S0048C00482","latitude":50.085211,"longitude":14.45158600000002,"address":"Štítného 629/23","district":null,"postal_code":"13000","total_volume":1500,"trash_type":"paper","prediction":"2019-04-14T04:57:29.000Z","bin_type":"Schäfer/Europa-OR/GB","installed_at":"2018-12-05T00:00:00.000Z"}},{"geometry":{"type":"Point","coordinates":[14.45158600000002,50.085211]},"type":"Feature","properties":{"id":30029,"code":"S0048C00483","latitude":50.085211,"longitude":14.45158600000002,"address":"Štítného 629/23","district":null,"postal_code":"13000","total_volume":1500,"trash_type":"plastic","prediction":null,"bin_type":"Schäfer/Europa-OR/GB","installed_at":"2018-12-05T00:00:00.000Z"}},{"geometry":{"type":"Point","coordinates":[14.45158600000002,50.085211]},"type":"Feature","properties":{"id":30030,"code":"S0048C00484","latitude":50.085211,"longitude":14.45158600000002,"address":"Štítného 629/23","district":null,"postal_code":"13000","total_volume":1500,"trash_type":"glass_coloured","prediction":"2019-04-23T10:37:12.000Z","bin_type":"Schäfer/Europa-OR/GB","installed_at":"2018-12-05T00:00:00.000Z"}},{"geometry":{"type":"Point","coordinates":[14.45158600000002,50.085211]},"type":"Feature","properties":{"id":30031,"code":"S0048C00485","latitude":50.085211,"longitude":14.45158600000002,"address":"Štítného 629/23","district":null,"postal_code":"13000","total_volume":1500,"trash_type":"glass_white","prediction":"2019-05-10T05:47:19.000Z","bin_type":"Schäfer/Europa-OR/GB","installed_at":"2018-12-05T00:00:00.000Z"}},{"geometry":{"type":"Point","coordinates":[14.456382200000007,50.0860891]},"type":"Feature","properties":{"id":30032,"code":"S0049C00491","latitude":50.0860891,"longitude":14.456382200000007,"address":"Českobratrská 276","district":null,"postal_code":"13000","total_volume":3000,"trash_type":"paper","prediction":null,"bin_type":"Schäfer/Europa-OR/GB","installed_at":"2018-12-18T00:00:00.000Z"}},{"geometry":{"type":"Point","coordinates":[14.456382200000007,50.0860891]},"type":"Feature","properties":{"id":30034,"code":"S0049C00493","latitude":50.0860891,"longitude":14.456382200000007,"address":"Českobratrská 276","district":null,"postal_code":"13000","total_volume":1500,"trash_type":"plastic","prediction":"2019-04-14T23:21:33.000Z","bin_type":"Schäfer/Europa-OR/GB","installed_at":"2018-12-18T00:00:00.000Z"}},{"geometry":{"type":"Point","coordinates":[14.456382200000007,50.0860891]},"type":"Feature","properties":{"id":30036,"code":"S0049C00495","latitude":50.0860891,"longitude":14.456382200000007,"address":"Českobratrská 276","district":null,"postal_code":"13000","total_volume":1500,"trash_type":"glass_coloured","prediction":"2019-04-13T18:05:05.000Z","bin_type":"Schäfer/Europa-OR/GB","installed_at":"2018-12-18T00:00:00.000Z"}},{"geometry":{"type":"Point","coordinates":[14.456382200000007,50.0860891]},"type":"Feature","properties":{"id":30037,"code":"S0049C00496","latitude":50.0860891,"longitude":14.456382200000007,"address":"Českobratrská 276","district":null,"postal_code":"13000","total_volume":1500,"trash_type":"glass_white","prediction":"2021-07-17T19:21:45.000Z","bin_type":"Schäfer/Europa-OR/GB","installed_at":"2018-12-18T00:00:00.000Z"}},{"geometry":{"type":"Point","coordinates":[14.456382200000007,50.0860891]},"type":"Feature","properties":{"id":30038,"code":"S0049C00497","latitude":50.0860891,"longitude":14.456382200000007,"address":"Českobratrská 276","district":null,"postal_code":"13000","total_volume":1500,"trash_type":"beverage_cartons","prediction":"2019-05-04T10:26:02.000Z","bin_type":"Schäfer/Europa-OR/GB","installed_at":"2018-12-18T00:00:00.000Z"}},{"geometry":{"type":"Point","coordinates":[14.461461999999983,50.0868247]},"type":"Feature","properties":{"id":30039,"code":"S0050C00501","latitude":50.0868247,"longitude":14.461461999999983,"address":"Jeseniova 1196","district":null,"postal_code":"13000","total_volume":3000,"trash_type":"paper","prediction":null,"bin_type":"Schäfer/Europa-OR/GB","installed_at":"2018-12-05T00:00:00.000Z"}},{"geometry":{"type":"Point","coordinates":[14.461461999999983,50.0868247]},"type":"Feature","properties":{"id":30040,"code":"S0050C00502","latitude":50.0868247,"longitude":14.461461999999983,"address":"Jeseniova 1196","district":null,"postal_code":"13000","total_volume":1500,"trash_type":"plastic","prediction":"2019-04-14T23:47:08.000Z","bin_type":"Schäfer/Europa-OR/GB","installed_at":"2018-12-05T00:00:00.000Z"}},{"geometry":{"type":"Point","coordinates":[14.461461999999983,50.0868247]},"type":"Feature","properties":{"id":30041,"code":"S0050C00503","latitude":50.0868247,"longitude":14.461461999999983,"address":"Jeseniova 1196","district":null,"postal_code":"13000","total_volume":1500,"trash_type":"glass_coloured","prediction":"2019-04-19T08:59:50.000Z","bin_type":"Schäfer/Europa-OR/GB","installed_at":"2018-12-05T00:00:00.000Z"}},{"geometry":{"type":"Point","coordinates":[14.461461999999983,50.0868247]},"type":"Feature","properties":{"id":30042,"code":"S0050C00504","latitude":50.0868247,"longitude":14.461461999999983,"address":"Jeseniova 1196","district":null,"postal_code":"13000","total_volume":1500,"trash_type":"glass_white","prediction":"2019-04-15T04:37:59.000Z","bin_type":"Schäfer/Europa-OR/GB","installed_at":"2018-12-05T00:00:00.000Z"}},{"geometry":{"type":"Point","coordinates":[14.461461999999983,50.0868247]},"type":"Feature","properties":{"id":30043,"code":"S0050C00505","latitude":50.0868247,"longitude":14.461461999999983,"address":"Jeseniova 1196","district":null,"postal_code":"13000","total_volume":1500,"trash_type":"beverage_cartons","prediction":"2019-04-23T07:32:34.000Z","bin_type":"Schäfer/Europa-OR/GB","installed_at":"2018-12-05T00:00:00.000Z"}},{"geometry":{"type":"Point","coordinates":[14.4626,50.0877]},"type":"Feature","properties":{"id":30044,"code":"S0051C00511","latitude":50.0877,"longitude":14.4626,"address":"nám.Barikád 0","district":null,"postal_code":"13000","total_volume":3000,"trash_type":"paper","prediction":"2019-04-13T10:08:49.000Z","bin_type":"Schäfer/Europa-OR/GB","installed_at":"2018-12-18T00:00:00.000Z"}},{"geometry":{"type":"Point","coordinates":[14.4626,50.0877]},"type":"Feature","properties":{"id":30046,"code":"S0051C00513","latitude":50.0877,"longitude":14.4626,"address":"nám.Barikád 0","district":null,"postal_code":"13000","total_volume":1500,"trash_type":"plastic","prediction":null,"bin_type":"Schäfer/Europa-OR/GB","installed_at":"2018-12-18T00:00:00.000Z"}},{"geometry":{"type":"Point","coordinates":[14.4626,50.0877]},"type":"Feature","properties":{"id":30048,"code":"S0051C00515","latitude":50.0877,"longitude":14.4626,"address":"nám.Barikád 0","district":null,"postal_code":"13000","total_volume":1500,"trash_type":"glass_coloured","prediction":"2019-04-17T06:28:30.000Z","bin_type":"Schäfer/Europa-OR/GB","installed_at":"2018-12-18T00:00:00.000Z"}},{"geometry":{"type":"Point","coordinates":[14.4626,50.0877]},"type":"Feature","properties":{"id":30049,"code":"S0051C00516","latitude":50.0877,"longitude":14.4626,"address":"nám.Barikád 0","district":null,"postal_code":"13000","total_volume":1500,"trash_type":"glass_white","prediction":null,"bin_type":"Schäfer/Europa-OR/GB","installed_at":"2018-12-18T00:00:00.000Z"}},{"geometry":{"type":"Point","coordinates":[14.4626,50.0877]},"type":"Feature","properties":{"id":30050,"code":"S0051C00517","latitude":50.0877,"longitude":14.4626,"address":"nám.Barikád 0","district":null,"postal_code":"13000","total_volume":1500,"trash_type":"beverage_cartons","prediction":"2019-04-19T09:36:39.000Z","bin_type":"Schäfer/Europa-OR/GB","installed_at":"2018-12-18T00:00:00.000Z"}},{"geometry":{"type":"Point","coordinates":[14.457476400000019,50.0794779]},"type":"Feature","properties":{"id":30051,"code":"S0052C00521","latitude":50.0794779,"longitude":14.457476400000019,"address":"Lucemburská 1579/33","district":null,"postal_code":"13000","total_volume":1500,"trash_type":"paper","prediction":"2019-04-14T04:37:37.000Z","bin_type":"Schäfer/Europa-OR/GB","installed_at":"2018-12-05T00:00:00.000Z"}},{"geometry":{"type":"Point","coordinates":[14.457476400000019,50.0794779]},"type":"Feature","properties":{"id":30052,"code":"S0052C00522","latitude":50.0794779,"longitude":14.457476400000019,"address":"Lucemburská 1579/33","district":null,"postal_code":"13000","total_volume":1500,"trash_type":"plastic","prediction":"2019-04-17T09:44:27.000Z","bin_type":"Schäfer/Europa-OR/GB","installed_at":"2018-12-05T00:00:00.000Z"}},{"geometry":{"type":"Point","coordinates":[14.457476400000019,50.0794779]},"type":"Feature","properties":{"id":30053,"code":"S0052C00523","latitude":50.0794779,"longitude":14.457476400000019,"address":"Lucemburská 1579/33","district":null,"postal_code":"13000","total_volume":1500,"trash_type":"glass_coloured","prediction":"2019-04-19T01:19:41.000Z","bin_type":"Schäfer/Europa-OR/GB","installed_at":"2018-12-05T00:00:00.000Z"}},{"geometry":{"type":"Point","coordinates":[14.457476400000019,50.0794779]},"type":"Feature","properties":{"id":30054,"code":"S0052C00524","latitude":50.0794779,"longitude":14.457476400000019,"address":"Lucemburská 1579/33","district":null,"postal_code":"13000","total_volume":1500,"trash_type":"glass_white","prediction":"2019-04-16T21:38:53.000Z","bin_type":"Schäfer/Europa-OR/GB","installed_at":"2018-12-05T00:00:00.000Z"}},{"geometry":{"type":"Point","coordinates":[14.457476400000019,50.0794779]},"type":"Feature","properties":{"id":30413,"code":"S0052C00525","latitude":50.0794779,"longitude":14.457476400000019,"address":"Lucemburská 1579/33","district":null,"postal_code":"13000","total_volume":1500,"trash_type":"beverage_cartons","prediction":"2019-04-14T05:13:09.000Z","bin_type":"Schäfer/Europa-OR/GB","installed_at":null}},{"geometry":{"type":"Point","coordinates":[14.44573939999998,50.0822179]},"type":"Feature","properties":{"id":30055,"code":"S0053C00531","latitude":50.0822179,"longitude":14.44573939999998,"address":"Bořivojova 761/97","district":null,"postal_code":"13000","total_volume":3000,"trash_type":"paper","prediction":"2019-04-13T23:46:18.000Z","bin_type":"Schäfer/Europa-OR/GB","installed_at":"2018-12-05T00:00:00.000Z"}},{"geometry":{"type":"Point","coordinates":[14.44573939999998,50.0822179]},"type":"Feature","properties":{"id":30056,"code":"S0053C00532","latitude":50.0822179,"longitude":14.44573939999998,"address":"Bořivojova 761/97","district":null,"postal_code":"13000","total_volume":1500,"trash_type":"plastic","prediction":"2019-04-12T13:02:19.000Z","bin_type":"Schäfer/Europa-OR/GB","installed_at":"2018-12-05T00:00:00.000Z"}},{"geometry":{"type":"Point","coordinates":[14.44573939999998,50.0822179]},"type":"Feature","properties":{"id":30057,"code":"S0053C00533","latitude":50.0822179,"longitude":14.44573939999998,"address":"Bořivojova 761/97","district":null,"postal_code":"13000","total_volume":1500,"trash_type":"glass_coloured","prediction":"2019-04-13T15:17:01.000Z","bin_type":"Schäfer/Europa-OR/GB","installed_at":"2018-12-05T00:00:00.000Z"}},{"geometry":{"type":"Point","coordinates":[14.44573939999998,50.0822179]},"type":"Feature","properties":{"id":30058,"code":"S0053C00534","latitude":50.0822179,"longitude":14.44573939999998,"address":"Bořivojova 761/97","district":null,"postal_code":"13000","total_volume":1500,"trash_type":"glass_white","prediction":"2019-05-14T08:37:01.000Z","bin_type":"Schäfer/Europa-OR/GB","installed_at":"2018-12-05T00:00:00.000Z"}},{"geometry":{"type":"Point","coordinates":[14.471963200000005,50.0887412]},"type":"Feature","properties":{"id":30059,"code":"S0054C00541","latitude":50.0887412,"longitude":14.471963200000005,"address":"Jeseniova 2593/98","district":null,"postal_code":"13000","total_volume":3000,"trash_type":"paper","prediction":"2019-04-12T11:08:49.000Z","bin_type":"Schäfer/Europa-OR/GB","installed_at":"2018-12-05T00:00:00.000Z"}},{"geometry":{"type":"Point","coordinates":[14.471963200000005,50.0887412]},"type":"Feature","properties":{"id":30060,"code":"S0054C00542","latitude":50.0887412,"longitude":14.471963200000005,"address":"Jeseniova 2593/98","district":null,"postal_code":"13000","total_volume":1500,"trash_type":"plastic","prediction":"2019-04-15T02:33:48.000Z","bin_type":"Schäfer/Europa-OR/GB","installed_at":"2018-12-05T00:00:00.000Z"}},{"geometry":{"type":"Point","coordinates":[14.471963200000005,50.0887412]},"type":"Feature","properties":{"id":30061,"code":"S0054C00543","latitude":50.0887412,"longitude":14.471963200000005,"address":"Jeseniova 2593/98","district":null,"postal_code":"13000","total_volume":1500,"trash_type":"glass_coloured","prediction":"2020-01-18T03:32:24.000Z","bin_type":"Schäfer/Europa-OR/GB","installed_at":"2018-12-05T00:00:00.000Z"}},{"geometry":{"type":"Point","coordinates":[14.471963200000005,50.0887412]},"type":"Feature","properties":{"id":30062,"code":"S0054C00544","latitude":50.0887412,"longitude":14.471963200000005,"address":"Jeseniova 2593/98","district":null,"postal_code":"13000","total_volume":1500,"trash_type":"glass_white","prediction":"2019-04-16T00:45:11.000Z","bin_type":"Schäfer/Europa-OR/GB","installed_at":"2018-12-05T00:00:00.000Z"}},{"geometry":{"type":"Point","coordinates":[14.471963200000005,50.0887412]},"type":"Feature","properties":{"id":30063,"code":"S0054C00545","latitude":50.0887412,"longitude":14.471963200000005,"address":"Jeseniova 2593/98","district":null,"postal_code":"13000","total_volume":1500,"trash_type":"beverage_cartons","prediction":"2019-04-25T09:34:38.000Z","bin_type":"Schäfer/Europa-OR/GB","installed_at":"2018-12-05T00:00:00.000Z"}},{"geometry":{"type":"Point","coordinates":[14.4554081,50.0856753]},"type":"Feature","properties":{"id":30064,"code":"S0055C00551","latitude":50.0856753,"longitude":14.4554081,"address":"Rokycanova 240/27","district":null,"postal_code":"13000","total_volume":3000,"trash_type":"beverage_cartons","prediction":"2019-04-16T11:54:18.000Z","bin_type":"Schäfer/Europa-OR/GB","installed_at":"2018-12-05T00:00:00.000Z"}},{"geometry":{"type":"Point","coordinates":[14.4554081,50.0856753]},"type":"Feature","properties":{"id":30065,"code":"S0055C00552","latitude":50.0856753,"longitude":14.4554081,"address":"Rokycanova 240/27","district":null,"postal_code":"13000","total_volume":1500,"trash_type":"paper","prediction":null,"bin_type":"Schäfer/Europa-OR/GB","installed_at":"2018-12-05T00:00:00.000Z"}},{"geometry":{"type":"Point","coordinates":[14.4554081,50.0856753]},"type":"Feature","properties":{"id":30066,"code":"S0055C00553","latitude":50.0856753,"longitude":14.4554081,"address":"Rokycanova 240/27","district":null,"postal_code":"13000","total_volume":1500,"trash_type":"plastic","prediction":"2019-04-13T07:27:48.000Z","bin_type":"Schäfer/Europa-OR/GB","installed_at":"2018-12-05T00:00:00.000Z"}},{"geometry":{"type":"Point","coordinates":[14.4554081,50.0856753]},